absolute, link, Address, Latitude, Longitude, Price, #Bed, #Bath, Square Foot, Year Built, date1, price1, date2, price2, date3, price3, date4, price4, date5, price5, date6, price6, date7, price7, link1, ZestYear 2015, ZestPrice 2015 , ZestYear 2016, ZestPrice 2016, ZestYear 2017, ZestPrice 2017, ZestYear 2018, ZestPrice 2018, ZestYear 2019, ZestPrice 2019, ZestYear 2020, ZestPrice 2020
1,https://www.zillow.com/homedetails/1722-Latroy-Ave-Mount-Pleasant-SC-29464/88998517_zpid/,1722 Latroy Ave Mount Pleasant SC 29464,32.850703499999995,-79.8407256,8900000.0,3.0,2.0,1900.0,1963,6/26/2020,8900000.0,nan,nan,nan,nan,nan,nan,nan,nan,nan,nan,nan,nan,https://www.zillow.com/homedetails/1722-Latroy-Ave-Mount-Pleasant-SC-29464/88998517_zpid/,nan,nan,nan,nan,nan,nan,nan,nan,nan,nan,nan,nan
2,https://www.zillow.com/homedetails/1954-Sandy-Point-Ln-Mount-Pleasant-SC-29466/10938706_zpid/,1954 Sandy Point Ln Mount Pleasant SC 29466,32.8913327,-79.83981490000001,4500000.0,6.0,8.0,7199.0,2000,7/25/2020,4500000.0,9/26/2017,184000.0,10/6/2015,4000000.0,5/8/2015,4000000.0,4/15/2014,3900000.0,2/13/2014,3900000.0,8/31/2013,3999999.0,https://www.zillow.com/homedetails/1954-Sandy-Point-Ln-Mount-Pleasant-SC-29466/10938706_zpid/,2015,3200.0,Jan 2016,2200.0,Jan 2017,2400.0,Dec 2017,2600.0,Jan 2019,2300,Feb 2020,2200.0
3,https://www.zillow.com/homedetails/212-Haddrell-St-Mount-Pleasant-SC-29464/10922911_zpid/,212 Haddrell St Mount Pleasant SC 29464,32.7898952,-79.8840745,3950000.0,4.0,4.0,4262.0,2000,6/5/2020,3950000.0,5/9/2014,190000.0,nan,nan,nan,nan,nan,nan,nan,nan,nan,nan,https://www.zillow.com/homedetails/212-Haddrell-St-Mount-Pleasant-SC-29464/10922911_zpid/,2015,1800.0,Jan 2016,2200.0,Jan 2017,2300.0,Dec 2017,2400.0,Jan 2019,3000,Feb 2020,2900.0
4,https://www.zillow.com/homedetails/2483-River-Bluff-Ln-Mount-Pleasant-SC-29466/68356011_zpid/,2483 River Bluff Ln Mount Pleasant SC 29466,32.8958273,-79.83847159999999,3900000.0,5.0,6.0,6810.0,2003,8/5/2020,3900000.0,4/3/2013,1740000.0,3/11/2008,2650000.0,1/19/2008,2650000.0,2/24/2003,1275000.0,2/14/2000,300000.0,nan,nan,https://www.zillow.com/homedetails/2483-River-Bluff-Ln-Mount-Pleasant-SC-29466/68356011_zpid/,2015,1900.0,Jan 2016,2100.0,Jan 2017,2200.0,Dec 2017,2300.0,Jan 2019,1900,Feb 2020,2000.0
5,https://www.zillow.com/homedetails/1444-Madison-Ct-Mount-Pleasant-SC-29466/10937780_zpid/,1444 Madison Ct Mount Pleasant SC 29466,32.8658293,-79.819125,3750000.0,6.0,6.0,7828.0,1995,5/20/2020,3750000.0,9/22/2011,1475000.0,9/14/2010,1799000.0,2/17/2010,1799000.0,8/1/2006,2400000.0,nan,nan,nan,nan,https://www.zillow.com/homedetails/1444-Madison-Ct-Mount-Pleasant-SC-29466/10937780_zpid/,2015,1800.0,Jan 2016,1800.0,Jan 2017,2200.0,Dec 2017,2300.0,Jan 2019,2000,Feb 2020,2200.0
6,https://www.zillow.com/homedetails/201-Ban-St-Mount-Pleasant-SC-29464/10924372_zpid/,201 Ban St Mount Pleasant SC 29464,32.783837,-79.8743305,3650000.0,6.0,5.0,3791.0,1969,9/2/2020,3650000.0,8/20/2019,3950000.0,5/14/2019,4500000.0,6/29/2018,5250000.0,nan,nan,nan,nan,nan,nan,https://www.zillow.com/homedetails/201-Ban-St-Mount-Pleasant-SC-29464/10924372_zpid/,2015,nan,nan,nan,nan,nan,nan,nan,nan,nan,nan,nan
7,https://www.zillow.com/homedetails/285-S-Plaza-Ct-PENTHOUSE-10-Mount-Pleasant-SC-29464/2078391281_zpid/,285 S Plaza Ct PENTHOUSE 10 Mount Pleasant SC 29464,32.797369,-79.903699,3500000.0,3.0,4.0,4046.0,2002,8/14/2020,3500000.0,8/5/2020,3500000.0,nan,nan,nan,nan,nan,nan,nan,nan,nan,nan,https://www.zillow.com/homedetails/285-S-Plaza-Ct-PENTHOUSE-10-Mount-Pleasant-SC-29464/2078391281_zpid/,2015,nan,nan,nan,nan,nan,nan,nan,nan,nan,nan,nan
8,https://www.zillow.com/homedetails/4440-Wando-Farms-Rd-Mount-Pleasant-SC-29429/122199145_zpid/,4440 Wando Farms Rd Mount Pleasant SC 29429,32.916884,-79.724954,3450000.0,5.0,6.0,5885.0,2011,8/20/2020,3450000.0,6/13/2020,3650000.0,3/22/2020,3800000.0,2/2/2019,3900000.0,11/28/2005,1575000.0,nan,nan,nan,nan,https://www.zillow.com/homedetails/4440-Wando-Farms-Rd-Mount-Pleasant-SC-29429/122199145_zpid/,2015,nan,nan,nan,nan,nan,nan,nan,nan,nan,nan,nan
9,https://www.zillow.com/homedetails/1986-Sandy-Point-Ln-Mount-Pleasant-SC-29466/92383730_zpid/,1986 Sandy Point Ln Mount Pleasant SC 29466,32.8935531,-79.8383892,3447000.0,5.0,8.0,7832.0,2008,4/21/2020,3447000.0,2/12/2020,3300000.0,2/28/2019,3300000.0,7/27/2018,3500000.0,10/7/2017,3800000.0,4/12/2017,4200000.0,3/3/2015,5000000.0,https://www.zillow.com/homedetails/1986-Sandy-Point-Ln-Mount-Pleasant-SC-29466/92383730_zpid/,2015,4500.0,Jan 2016,2700.0,Jan 2017,2900.0,Dec 2017,3600.0,Jan 2019,3300,Feb 2020,3200.0
10,https://www.zillow.com/homedetails/2744-Rush-Haven-Dr-Mount-Pleasant-SC-29466/110234400_zpid/,2744 Rush Haven Dr Mount Pleasant SC 29466,32.9209204,-79.81501,3000000.0,6.0,7.0,7673.0,2015,8/27/2020,3000000.0,3/24/2020,2999900.0,2/13/2019,2999900.0,6/19/2018,3200000.0,6/28/2012,415000.0,3/15/2012,489950.0,1/20/2012,489950.0,https://www.zillow.com/homedetails/2744-Rush-Haven-Dr-Mount-Pleasant-SC-29466/110234400_zpid/,2015,2000.0,Jan 2016,1900.0,Jun 2017,1900.0,Jul 2018,3100.0,Jul 2019,2800,Listed for,2800.0
11,https://www.zillow.com/homedetails/47-Robert-Mills-Cir-Mount-Pleasant-SC-29464/99370678_zpid/,47 Robert Mills Cir Mount Pleasant SC 29464,32.822036499999996,-79.8827735,2995000.0,6.0,8.0,8007.0,2014,5/25/2020,2995000.0,4/16/2020,2999000.0,1/21/2019,7500.0,11/20/2018,7500.0,2/6/2018,1100000.0,1/4/2011,330000.0,3/31/2006,540000.0,https://www.zillow.com/homedetails/47-Robert-Mills-Cir-Mount-Pleasant-SC-29464/99370678_zpid/,2015,1300.0,Oct 2015,1900.0,Oct 2016,2400.0,Sep 2017,2400.0,Sep 2018,2500,Sep 2019,2600.0
12,https://www.zillow.com/homedetails/136-Wando-Reach-Ct-Mount-Pleasant-SC-29464/80216372_zpid/,136 Wando Reach Ct Mount Pleasant SC 29464,32.8157027,-79.9030906,2745000.0,5.0,6.0,6529.0,2005,7/18/2020,2745000.0,3/17/2020,2945000.0,10/2/2019,3000000.0,9/17/2019,3000000.0,12/21/2011,2290000.0,10/15/2011,2499000.0,4/3/2011,2499000.0,https://www.zillow.com/homedetails/136-Wando-Reach-Ct-Mount-Pleasant-SC-29464/80216372_zpid/,2015,2600.0,2016,3300.0,2017,2900.0,2018,3100.0,2019,2900,2020,2800.0
13,https://www.zillow.com/homedetails/178-Hobcaw-Dr-Mount-Pleasant-SC-29464/10921029_zpid/,178 Hobcaw Dr Mount Pleasant SC 29464,32.8215635,-79.8976233,2650000.0,5.0,4.0,3270.0,1965,7/15/2020,2650000.0,1/18/2020,2775000.0,9/20/2019,2900000.0,5/16/2019,3000000.0,2/26/2019,3000000.0,nan,nan,nan,nan,https://www.zillow.com/homedetails/178-Hobcaw-Dr-Mount-Pleasant-SC-29464/10921029_zpid/,2015,1200.0,Jan 2016,1900.0,Jan 2017,1700.0,Dec 2017,1700.0,Jan 2019,1700,Feb 2020,2600.0
14,https://www.zillow.com/homedetails/124-Wando-Reach-Ct-Mount-Pleasant-SC-29464/88980197_zpid/,124 Wando Reach Ct Mount Pleasant SC 29464,32.8155576,-79.9020843,2595000.0,4.0,5.0,5364.0,2007,7/7/2020,2595000.0,10/15/2019,2750000.0,4/18/2019,2995000.0,4/18/2007,2600000.0,4/25/2005,575000.0,nan,nan,nan,nan,https://www.zillow.com/homedetails/124-Wando-Reach-Ct-Mount-Pleasant-SC-29464/88980197_zpid/,2015,nan,nan,nan,nan,nan,nan,nan,nan,nan,nan,nan
15,https://www.zillow.com/homedetails/814-Pitt-St-Mount-Pleasant-SC-29464/10925201_zpid/,814 Pitt St Mount Pleasant SC 29464,32.7799251,-79.86792700000001,2495000.0,4.0,4.0,3714.0,1955,7/18/2020,2495000.0,6/28/2020,2595000.0,5/5/2020,2650000.0,2/24/2012,573000.0,10/15/2011,615000.0,9/4/2011,645000.0,8/3/2011,675000.0,https://www.zillow.com/homedetails/814-Pitt-St-Mount-Pleasant-SC-29464/10925201_zpid/,2015,684.0,Jan 2016,818.0,Jan 2017,1000.0,Dec 2017,1200.0,Jan 2019,1300,Feb 2020,1200.0
16,https://www.zillow.com/homedetails/202-Bennett-St-Mount-Pleasant-SC-29464/10923928_zpid/,202 Bennett St Mount Pleasant SC 29464,32.788533,-79.8789677,2395000.0,4.0,4.0,3270.0,1915,8/14/2020,2395000.0,7/1/2020,2500000.0,3/1/2013,1250000.0,10/1/2012,1395000.0,5/21/2012,1450000.0,12/2/2004,1300000.0,nan,nan,https://www.zillow.com/homedetails/202-Bennett-St-Mount-Pleasant-SC-29464/10923928_zpid/,2015,1400.0,Jan 2016,1500.0,Jan 2017,1600.0,Dec 2017,1800.0,Jan 2019,1700,Feb 2020,1800.0
17,https://www.zillow.com/homedetails/409-Church-St-Mount-Pleasant-SC-29464/10923930_zpid/,409 Church St Mount Pleasant SC 29464,32.788690700000004,-79.878224,2290000.0,4.0,4.0,4274.0,1847,7/16/2020,2290000.0,10/24/2019,2390000.0,12/18/2018,2500000.0,10/4/2018,2500000.0,8/1/2014,1595000.0,4/28/2013,1750000.0,10/27/2012,1750000.0,https://www.zillow.com/homedetails/409-Church-St-Mount-Pleasant-SC-29464/10923930_zpid/,2015,1600.0,Jan 2016,1700.0,Jan 2017,1800.0,Dec 2017,2000.0,Jan 2019,2400,Feb 2020,2200.0
18,https://www.zillow.com/homedetails/1950-Sandy-Point-Ln-Mount-Pleasant-SC-29466/10938707_zpid/,1950 Sandy Point Ln Mount Pleasant SC 29466,32.891251000000004,-79.8389968,2200000.0,6.0,4.0,4746.0,2000,9/4/2020,2200000.0,3/31/2015,1075000.0,1/10/2014,830000.0,6/15/2013,900000.0,4/22/2013,900000.0,6/20/2012,1250000.0,4/11/2012,1250000.0,https://www.zillow.com/homedetails/1950-Sandy-Point-Ln-Mount-Pleasant-SC-29466/10938707_zpid/,2015,1300.0,nan,nan,nan,nan,nan,nan,nan,nan,nan,nan
19,https://www.zillow.com/homedetails/202-Pitt-St-Mount-Pleasant-SC-29464/10923907_zpid/,202 Pitt St Mount Pleasant SC 29464,32.7863312,-79.87522729999999,2149000.0,4.0,5.0,4434.0,1892,7/29/2020,2149000.0,1/15/2020,2150000.0,9/4/2019,1999000.0,4/25/2019,1999000.0,3/19/2019,2150000.0,2/28/2019,2300000.0,1/12/2019,2499000.0,https://www.zillow.com/homedetails/202-Pitt-St-Mount-Pleasant-SC-29464/10923907_zpid/,2015,1500.0,Jan 2016,1800.0,Jan 2017,1700.0,Dec 2017,1800.0,Jan 2019,2300,Listed for,2000.0
20,https://www.zillow.com/homedetails/821-Bridgetown-Pass-Mount-Pleasant-SC-29464/92386355_zpid/,821 Bridgetown Pass Mount Pleasant SC 29464,32.8534279,-79.8681146,2050000.0,6.0,6.0,5300.0,2008,7/24/2020,2050000.0,7/9/2020,1995000.0,10/3/2007,284000.0,nan,nan,nan,nan,nan,nan,nan,nan,https://www.zillow.com/homedetails/821-Bridgetown-Pass-Mount-Pleasant-SC-29464/92386355_zpid/,2015,1400.0,Jan 2016,1400.0,Jan 2017,1700.0,Dec 2017,1600.0,Jan 2019,1500,Feb 2020,1500.0
21,https://www.zillow.com/homedetails/2978-River-Vista-Way-Mount-Pleasant-SC-29466/110225632_zpid/,2978 River Vista Way Mount Pleasant SC 29466,32.922499800000004,-79.8005404,1999000.0,4.0,5.0,5006.0,2013,7/20/2020,1999000.0,9/26/2007,739000.0,nan,nan,nan,nan,nan,nan,nan,nan,nan,nan,https://www.zillow.com/homedetails/2978-River-Vista-Way-Mount-Pleasant-SC-29466/110225632_zpid/,2015,nan,Jan 2016,1500.0,Jan 2017,1600.0,Dec 2017,1600.0,Jan 2019,1500,Feb 2020,1700.0
22,https://www.zillow.com/homedetails/221-Queen-St-Mount-Pleasant-SC-29464/10924390_zpid/,221 Queen St Mount Pleasant SC 29464,32.7831098,-79.87236180000001,1995000.0,3.0,4.0,2985.0,1992,7/6/2020,1995000.0,6/30/2017,1650000.0,6/8/2017,1775000.0,2/15/2017,1775000.0,12/11/2015,1000000.0,11/29/2015,1260000.0,8/19/2015,1260000.0,https://www.zillow.com/homedetails/221-Queen-St-Mount-Pleasant-SC-29464/10924390_zpid/,2015,928.0,Sold for,1000.0,Jan 2017,1000.0,Dec 2017,1700.0,Jan 2019,1800,Feb 2020,1800.0
23,https://www.zillow.com/homedetails/85-5th-Ave-Mount-Pleasant-SC-29464/10921278_zpid/,85 5th Ave Mount Pleasant SC 29464,32.8123375,-79.904599,1995000.0,3.0,3.0,2376.0,1991,2/9/2020,1995000.0,nan,nan,nan,nan,nan,nan,nan,nan,nan,nan,nan,nan,https://www.zillow.com/homedetails/85-5th-Ave-Mount-Pleasant-SC-29464/10921278_zpid/,2015,508.0,Jan 2016,522.0,Jan 2017,569.0,Dec 2017,627.0,Jan 2019,654,Listed for,652.0
24,https://www.zillow.com/homedetails/3944-Ashton-Shore-Ln-Mount-Pleasant-SC-29466/110211592_zpid/,3944 Ashton Shore Ln Mount Pleasant SC 29466,32.923549,-79.782883,1940000.0,4.0,6.0,4748.0,No Data,8/28/2020,1940000.0,8/11/2020,1850000.0,7/26/2019,684000.0,8/28/2018,684000.0,3/3/2018,684000.0,2/21/2018,684000.0,8/23/2017,684000.0,https://www.zillow.com/homedetails/3944-Ashton-Shore-Ln-Mount-Pleasant-SC-29466/110211592_zpid/,2015,435.0,nan,nan,nan,nan,nan,nan,nan,nan,nan,nan
25,https://www.zillow.com/homedetails/948-Pitt-St-Mount-Pleasant-SC-29464/68018691_zpid/,948 Pitt St Mount Pleasant SC 29464,32.7772186,-79.86483670000001,1900000.0,3.0,3.0,3112.0,2003,5/16/2020,1900000.0,5/7/2014,1295000.0,5/2/2014,1325000.0,3/15/2014,1325000.0,2/19/2013,1500000.0,2/7/2013,1500000.0,5/23/2006,1450000.0,https://www.zillow.com/homedetails/948-Pitt-St-Mount-Pleasant-SC-29464/68018691_zpid/,2015,1300.0,Jan 2016,1400.0,Jan 2017,1500.0,Dec 2017,1600.0,Jan 2019,1700,Feb 2020,1700.0
26,https://www.zillow.com/homedetails/1416-Jacson-St-Mount-Pleasant-SC-29464/2081730249_zpid/,1416 Jacson St Mount Pleasant SC 29464,32.7852398,-79.8653156,1897000.0,5.0,5.0,3506.0,2020,6/4/2020,1897000.0,2/20/2020,1595000.0,12/16/2019,1595000.0,nan,nan,nan,nan,nan,nan,nan,nan,https://www.zillow.com/homedetails/1416-Jacson-St-Mount-Pleasant-SC-29464/2081730249_zpid/,2015,nan,Oct 2015,nan,Oct 2016,nan,Sep 2017,nan,Sep 2018,nan,Sep 2019,nan
27,https://www.zillow.com/homedetails/23-Grace-Ln-Mount-Pleasant-SC-29464/55640678_zpid/,23 Grace Ln Mount Pleasant SC 29464,32.815142200000004,-79.8754898,1895000.0,5.0,7.0,6355.0,2002,7/31/2020,1895000.0,5/27/2020,1895000.0,5/20/2020,1895000.0,4/22/2020,1895000.0,3/17/2020,1895000.0,10/10/2019,1895000.0,2/6/2019,1895000.0,https://www.zillow.com/homedetails/23-Grace-Ln-Mount-Pleasant-SC-29464/55640678_zpid/,2015,1800.0,Jan 2016,1800.0,Jan 2017,2300.0,Dec 2017,1900.0,Jan 2019,1900,Feb 2020,2000.0
28,https://www.zillow.com/homedetails/2081-Shell-Ring-Cir-Mount-Pleasant-SC-29466/110208240_zpid/,2081 Shell Ring Cir Mount Pleasant SC 29466,32.907266,-79.79320899999999,1890000.0,5.0,6.0,5401.0,2020,4/13/2020,1890000.0,7/20/2018,428000.0,5/14/2018,465000.0,1/24/2018,465000.0,12/2/1999,175000.0,nan,nan,nan,nan,https://www.zillow.com/homedetails/2081-Shell-Ring-Cir-Mount-Pleasant-SC-29466/110208240_zpid/,2015,nan,Oct 2015,nan,Oct 2016,nan,Sep 2017,nan,Sold for,nan,Sep 2019,nan
29,https://www.zillow.com/homedetails/191-Harbour-Watch-Way-Mount-Pleasant-SC-29464/10921724_zpid/,191 Harbour Watch Way Mount Pleasant SC 29464,32.8084695,-79.8993946,1880000.0,3.0,3.0,2860.0,1999,9/4/2020,1880000.0,3/14/2016,910000.0,1/17/2016,920000.0,1/12/2016,920000.0,nan,nan,nan,nan,nan,nan,https://www.zillow.com/homedetails/191-Harbour-Watch-Way-Mount-Pleasant-SC-29464/10921724_zpid/,2015,698.0,Jan 2016,766.0,Jan 2017,931.0,Dec 2017,998.0,Jan 2019,1000,Feb 2020,1100.0
30,https://www.zillow.com/homedetails/424-Greenwich-St-Mount-Pleasant-SC-29464/10924479_zpid/,178 N Shelmore Blvd Mount Pleasant SC 29464,32.818934000000006,-79.8800176,1875000.0,5.0,6.0,5000.0,2004,7/15/2020,1875000.0,3/23/2020,1945000.0,3/6/2020,1945000.0,10/23/2019,1945000.0,3/1/2011,1015000.0,7/3/2008,2279000.0,6/19/2008,2279000.0,https://www.zillow.com/homedetails/424-Greenwich-St-Mount-Pleasant-SC-29464/10924479_zpid/,2015,891.0,Jan 2016,1200.0,Jan 2017,1700.0,Dec 2017,1800.0,Jan 2019,1800,Listed for,2100.0
31,https://www.zillow.com/homedetails/178-N-Shelmore-Blvd-Mount-Pleasant-SC-29464/68394237_zpid/,424 Greenwich St Mount Pleasant SC 29464,32.7856235,-79.86947430000001,1875000.0,4.0,4.0,3959.0,2000,8/18/2020,1875000.0,7/1/2020,1950000.0,2/6/2020,2085000.0,12/5/2019,2195000.0,11/19/2019,2195000.0,8/14/2019,2345000.0,7/17/2019,2495000.0,https://www.zillow.com/homedetails/178-N-Shelmore-Blvd-Mount-Pleasant-SC-29464/68394237_zpid/,2015,1400.0,Jan 2016,1600.0,Jan 2017,1600.0,Dec 2017,1600.0,Jan 2019,1600,Feb 2020,1800.0
32,https://www.zillow.com/homedetails/801-Pitt-St-Mount-Pleasant-SC-29464/10925184_zpid/,801 Pitt St Mount Pleasant SC 29464,32.779936,-79.868654,1795000.0,4.0,4.0,3051.0,2017,6/10/2020,1795000.0,8/14/2015,500000.0,4/18/2011,350000.0,11/5/2010,150000.0,11/4/2010,450000.0,3/13/2007,689000.0,1/11/2007,456000.0,https://www.zillow.com/homedetails/801-Pitt-St-Mount-Pleasant-SC-29464/10925184_zpid/,2015,529.0,Sold for,507.0,Oct 2016,529.0,Sep 2017,550.0,Sep 2018,736,Sep 2019,843.0
33,https://www.zillow.com/homedetails/175-E-Shipyard-Rd-Mount-Pleasant-SC-29464/52905322_zpid/,175 E Shipyard Rd Mount Pleasant SC 29464,32.8186798,-79.8758179,1759000.0,4.0,4.0,3417.0,1999,4/28/2020,1759000.0,6/27/2018,1150000.0,6/26/2018,1245000.0,5/18/2018,1245000.0,4/2/2018,1245000.0,2/2/2018,1295000.0,2/1/2005,950000.0,https://www.zillow.com/homedetails/175-E-Shipyard-Rd-Mount-Pleasant-SC-29464/52905322_zpid/,2015,1100.0,Jan 2016,1200.0,Jan 2017,1500.0,Dec 2017,1300.0,Jan 2019,1200,Feb 2020,1200.0
34,https://www.zillow.com/homedetails/179-E-Shipyard-Rd-Mount-Pleasant-SC-29464/52905323_zpid/,179 E Shipyard Rd Mount Pleasant SC 29464,32.8188729,-79.8755117,1750000.0,5.0,6.0,4900.0,2001,8/27/2020,1750000.0,2/15/2020,1849000.0,12/18/2019,1885000.0,9/28/2019,1885000.0,7/23/2019,1895000.0,5/15/2019,1925000.0,11/26/2018,1975000.0,https://www.zillow.com/homedetails/179-E-Shipyard-Rd-Mount-Pleasant-SC-29464/52905323_zpid/,2015,1400.0,Jan 2016,1600.0,Jan 2017,1600.0,Dec 2017,1700.0,Jan 2019,1900,Listed for,1700.0
35,https://www.zillow.com/homedetails/174-N-Shelmore-Blvd-Mount-Pleasant-SC-29464/110213564_zpid/,174 N Shelmore Blvd Mount Pleasant SC 29464,32.8190956,-79.88012690000001,1699900.0,4.0,8.0,6228.0,2012,7/26/2020,1699900.0,7/6/2020,1699900.0,6/20/2020,1699900.0,11/23/2019,1770000.0,8/28/2019,1995000.0,12/31/2008,188000.0,8/19/2005,230000.0,https://www.zillow.com/homedetails/174-N-Shelmore-Blvd-Mount-Pleasant-SC-29464/110213564_zpid/,2015,nan,nan,nan,nan,nan,nan,nan,nan,nan,nan,nan
36,https://www.zillow.com/homedetails/129-Ponsbury-Rd-Mount-Pleasant-SC-29464/55640731_zpid/,129 Ponsbury Rd Mount Pleasant SC 29464,32.817805699999994,-79.8768679,1699000.0,5.0,6.0,4554.0,2002,8/20/2020,1699000.0,6/6/2017,1699500.0,3/4/2017,1699500.0,7/8/2016,1835000.0,6/27/2014,1350000.0,2/6/2013,1499000.0,10/24/2012,1499000.0,https://www.zillow.com/homedetails/129-Ponsbury-Rd-Mount-Pleasant-SC-29464/55640731_zpid/,2015,1400.0,Jan 2016,1500.0,Jan 2017,1700.0,Dec 2017,1600.0,Jan 2019,1600,Feb 2020,1600.0
37,https://www.zillow.com/homedetails/4923-Sound-View-Dr-Mount-Pleasant-SC-29466/80211791_zpid/,4923 Sound View Dr Mount Pleasant SC 29466,32.8529012,-79.7667541,1695000.0,4.0,4.0,4146.0,2005,6/4/2019,1695000.0,nan,nan,nan,nan,nan,nan,nan,nan,nan,nan,nan,nan,https://www.zillow.com/homedetails/4923-Sound-View-Dr-Mount-Pleasant-SC-29466/80211791_zpid/,2015,nan,nan,nan,nan,nan,nan,nan,nan,nan,nan,nan
38,https://www.zillow.com/homedetails/801-Harbour-Watch-Ct-Mount-Pleasant-SC-29464/88989825_zpid/,801 Harbour Watch Ct Mount Pleasant SC 29464,32.8093509,-79.9021936,1670000.0,5.0,5.0,3877.0,2007,7/17/2020,1670000.0,5/1/2020,1775000.0,9/13/2000,115000.0,nan,nan,nan,nan,nan,nan,nan,nan,https://www.zillow.com/homedetails/801-Harbour-Watch-Ct-Mount-Pleasant-SC-29464/88989825_zpid/,2015,1100.0,Jan 2016,1200.0,Jan 2017,1200.0,Dec 2017,1200.0,Jan 2019,1200,Feb 2020,1200.0
39,https://www.zillow.com/homedetails/920-Royall-Ave-Mount-Pleasant-SC-29464/10926230_zpid/,58 Saturday Rd Mount Pleasant SC 29464,32.8236083,-79.8766272,1595000.0,4.0,4.0,4200.0,2005,6/26/2020,1595000.0,3/7/2020,1695000.0,5/26/2004,185000.0,11/14/2002,150000.0,11/28/2000,141000.0,nan,nan,nan,nan,https://www.zillow.com/homedetails/920-Royall-Ave-Mount-Pleasant-SC-29464/10926230_zpid/,2015,1400.0,Jan 2016,1500.0,Jan 2017,1600.0,Dec 2017,1700.0,Jan 2019,1600,Feb 2020,1600.0
40,https://www.zillow.com/homedetails/58-Saturday-Rd-Mount-Pleasant-SC-29464/80212623_zpid/,920 Royall Ave Mount Pleasant SC 29464,32.7781994,-79.8638739,1595000.0,4.0,4.0,3000.0,2009,8/30/2020,1595000.0,4/29/2013,1292500.0,1/7/2010,1299000.0,8/15/2005,400000.0,nan,nan,nan,nan,nan,nan,https://www.zillow.com/homedetails/58-Saturday-Rd-Mount-Pleasant-SC-29464/80212623_zpid/,2015,1100.0,Jan 2016,1200.0,Jan 2017,1400.0,Dec 2017,1300.0,Jan 2019,1400,Listed for,1400.0
41,https://www.zillow.com/homedetails/743-3rd-St-Mount-Pleasant-SC-29464/89000661_zpid/,743 3rd St Mount Pleasant SC 29464,32.8136816,-79.9007615,1590000.0,5.0,7.0,5183.0,2007,7/27/2020,1590000.0,6/18/2020,1690000.0,5/30/2020,1790000.0,3/24/2020,1790000.0,2/20/2020,1790000.0,8/27/2007,1500000.0,7/17/2007,600000.0,https://www.zillow.com/homedetails/743-3rd-St-Mount-Pleasant-SC-29464/89000661_zpid/,2015,1400.0,Jan 2016,1800.0,Jan 2017,1700.0,Dec 2017,1600.0,Jan 2019,1600,Feb 2020,1700.0
42,https://www.zillow.com/homedetails/936-Mciver-St-Mount-Pleasant-SC-29464/68391500_zpid/,936 Mciver St Mount Pleasant SC 29464,32.7852949,-79.8552543,1575000.0,4.0,5.0,3576.0,2004,8/28/2020,1575000.0,7/18/2020,1595000.0,3/8/2012,999999.0,3/7/2012,999999.0,1/20/2010,745000.0,10/23/2009,999999.0,1/31/2009,1149731.0,https://www.zillow.com/homedetails/936-Mciver-St-Mount-Pleasant-SC-29464/68391500_zpid/,2015,894.0,Jul 2018,1200.0,Jul 2019,1200.0,Listed for,1500.0,nan,nan,nan,nan
43,https://www.zillow.com/homedetails/1162-Fulton-Hall-Ln-Mount-Pleasant-SC-29466/247524344_zpid/,1162 Fulton Hall Ln Mount Pleasant SC 29466,32.8471639,-79.8057789,1499000.0,4.0,4.0,3428.0,2018,7/25/2020,1499000.0,5/8/2020,1580000.0,11/26/2019,1580000.0,12/13/2018,1295000.0,2/8/2018,329000.0,3/28/2016,97750.0,nan,nan,https://www.zillow.com/homedetails/1162-Fulton-Hall-Ln-Mount-Pleasant-SC-29466/247524344_zpid/,2015,nan,Oct 2015,nan,Oct 2016,nan,Sep 2017,nan,Sep 2018,nan,Sep 2019,nan
44,https://www.zillow.com/homedetails/996-Law-Ln-Mount-Pleasant-SC-29464/10934211_zpid/,996 Law Ln Mount Pleasant SC 29464,32.835638,-79.84470809999999,1475000.0,5.0,6.0,4840.0,2018,6/24/2020,1475000.0,3/28/2020,1500000.0,4/4/2018,320000.0,8/11/2017,355000.0,3/22/2017,350000.0,12/27/2016,340000.0,12/27/2016,340000.0,https://www.zillow.com/homedetails/996-Law-Ln-Mount-Pleasant-SC-29464/10934211_zpid/,2015,344.0,Jan 2016,389.0,Jan 2017,335.0,Dec 2017,364.0,Jan 2019,375,Listed for,387.0
45,https://www.zillow.com/homedetails/317-Coinbow-Dr-Mount-Pleasant-SC-29464/10920899_zpid/,317 Coinbow Dr Mount Pleasant SC 29464,32.820578600000005,-79.88898490000001,1475000.0,5.0,3.0,4300.0,1976,8/27/2020,1475000.0,7/23/2020,1545000.0,6/8/2007,985000.0,12/10/1999,587000.0,nan,nan,nan,nan,nan,nan,https://www.zillow.com/homedetails/317-Coinbow-Dr-Mount-Pleasant-SC-29464/10920899_zpid/,2015,990.0,Jan 2016,1100.0,Jan 2017,1300.0,Dec 2017,1300.0,Jan 2019,1400,Feb 2020,1600.0
46,https://www.zillow.com/homedetails/276-Copahee-Rd-Mount-Pleasant-SC-29464/10921128_zpid/,276 Copahee Rd Mount Pleasant SC 29464,32.8177081,-79.8952615,1460000.0,5.0,4.0,3834.0,1985,7/30/2020,1460000.0,6/9/2020,1500000.0,5/9/2020,1575000.0,nan,nan,nan,nan,nan,nan,nan,nan,https://www.zillow.com/homedetails/276-Copahee-Rd-Mount-Pleasant-SC-29464/10921128_zpid/,2015,1400.0,Dec 2017,930.0,Jan 2019,929.0,Feb 2020,1000.0,nan,nan,nan,nan
47,https://www.zillow.com/homedetails/258-Magwood-Ln-Mount-Pleasant-SC-29464/10922860_zpid/,258 Magwood Ln Mount Pleasant SC 29464,32.7899558,-79.88117679999999,1425000.0,4.0,4.0,3181.0,1928,8/27/2020,1425000.0,10/25/2000,595000.0,nan,nan,nan,nan,nan,nan,nan,nan,nan,nan,https://www.zillow.com/homedetails/258-Magwood-Ln-Mount-Pleasant-SC-29464/10922860_zpid/,2015,1100.0,Jan 2016,1100.0,Jan 2017,1200.0,Dec 2017,1500.0,Jan 2019,1500,Feb 2020,1300.0
48,https://www.zillow.com/homedetails/1708-Canyon-Oas-Dr-Mount-Pleasant-SC-29464/92385581_zpid/,1708 Canyon Oas Dr Mount Pleasant SC 29464,32.814004499999996,-79.8146184,1425000.0,5.0,5.0,5062.0,2008,8/19/2020,1425000.0,8/10/2020,1425000.0,8/7/2020,1425000.0,7/28/2020,1425000.0,7/24/2020,1425000.0,1/11/2012,1000000.0,6/9/2006,331000.0,https://www.zillow.com/homedetails/1708-Canyon-Oas-Dr-Mount-Pleasant-SC-29464/92385581_zpid/,2015,1200.0,Jan 2016,1200.0,Jan 2017,1200.0,Dec 2017,1200.0,Jan 2019,1300,Feb 2020,1300.0
49,https://www.zillow.com/homedetails/35-John-Galt-Way-Mount-Pleasant-SC-29464/88971516_zpid/,35 John Galt Way Mount Pleasant SC 29464,32.817931,-79.877579,1399000.0,4.0,5.0,3264.0,2007,8/20/2020,1399000.0,7/8/2014,1160000.0,5/6/2008,1000000.0,nan,nan,nan,nan,nan,nan,nan,nan,https://www.zillow.com/homedetails/35-John-Galt-Way-Mount-Pleasant-SC-29464/88971516_zpid/,2015,1200.0,Jan 2016,1300.0,Jan 2017,1300.0,Dec 2017,1300.0,Jan 2019,1300,Feb 2020,1300.0
50,https://www.zillow.com/homedetails/2860-River-Vista-Way-Mount-Pleasant-SC-29466/110235420_zpid/,2860 River Vista Way Mount Pleasant SC 29466,32.9259869,-79.8041901,1399000.0,5.0,5.0,5264.0,2014,2/1/2020,1399000.0,7/3/2018,1250000.0,6/10/2018,1299000.0,5/4/2018,1299000.0,4/2/2018,1299000.0,3/31/2015,1299000.0,1/25/2014,1299000.0,https://www.zillow.com/homedetails/2860-River-Vista-Way-Mount-Pleasant-SC-29466/110235420_zpid/,2015,1200.0,Jan 2016,1100.0,Jan 2017,1300.0,Dec 2017,1300.0,Jan 2019,1300,Listed for,1300.0
51,https://www.zillow.com/homedetails/1004-Mystic-Dr-Mount-Pleasant-SC-29464/63781559_zpid/,1004 Mystic Dr Mount Pleasant SC 29464,32.8127031,-79.8827735,1385000.0,5.0,5.0,3609.0,2003,9/4/2020,1385000.0,8/22/2020,1100000.0,1/24/2020,5500.0,1/16/2020,5500.0,1/16/2020,4500.0,1/18/2018,1385000.0,11/7/2017,1385000.0,https://www.zillow.com/homedetails/1004-Mystic-Dr-Mount-Pleasant-SC-29464/63781559_zpid/,2015,887.0,Jan 2016,917.0,Jan 2017,986.0,Dec 2017,1300.0,Jan 2019,948,Feb 2020,985.0
52,https://www.zillow.com/homedetails/641-Palmetto-St-Mount-Pleasant-SC-29464/10924686_zpid/,641 Palmetto St Mount Pleasant SC 29464,32.7882121,-79.86831490000002,1350000.0,4.0,4.0,2407.0,2020,4/30/2020,1350000.0,12/24/2019,509000.0,12/5/2019,580000.0,11/7/2019,580000.0,10/24/2019,590000.0,10/11/2019,600000.0,9/28/2019,699000.0,https://www.zillow.com/homedetails/641-Palmetto-St-Mount-Pleasant-SC-29464/10924686_zpid/,2015,433.0,Jan 2016,464.0,Jan 2017,557.0,Dec 2017,617.0,Jan 2019,580,Sold for,559.0
53,https://www.zillow.com/homedetails/518-London-Bridge-Rd-Mount-Pleasant-SC-29464/10926252_zpid/,518 London Bridge Rd Mount Pleasant SC 29464,32.7797535,-79.86426209999999,1342000.0,3.0,3.0,2200.0,1975,9/4/2020,1342000.0,1/2/2013,425000.0,11/27/2012,445000.0,10/19/2012,445000.0,9/18/2012,454900.0,8/21/2010,410000.0,5/17/2010,410000.0,https://www.zillow.com/homedetails/518-London-Bridge-Rd-Mount-Pleasant-SC-29464/10926252_zpid/,2015,465.0,Jan 2016,573.0,Jan 2017,683.0,Dec 2017,747.0,Jan 2019,776,Feb 2020,775.0
54,https://www.zillow.com/homedetails/1173-Fulton-Hall-Ln-Mount-Pleasant-SC-29466/2097923164_zpid/,1173 Fulton Hall Ln Mount Pleasant SC 29466,32.8467742,-79.80524890000001,1325000.0,5.0,5.0,3768.0,2020,4/11/2018,1325000.0,1/13/2017,1130000.0,10/11/2016,1130000.0,9/21/2016,999000.0,9/7/2016,1130000.0,7/12/2016,999000.0,7/12/2016,1130000.0,https://www.zillow.com/homedetails/1173-Fulton-Hall-Ln-Mount-Pleasant-SC-29466/2097923164_zpid/,2015,nan,nan,nan,nan,nan,nan,nan,nan,nan,nan,nan
55,https://www.zillow.com/homedetails/155-Wingo-Way-433-Mount-Pleasant-SC-29464/247522425_zpid/,155 Wingo Way #433 Mount Pleasant SC 29464,32.8037058,-79.8988515,1299000.0,3.0,4.0,2200.0,2016,7/16/2020,1299000.0,4/8/2020,1349000.0,2/19/2020,1399000.0,3/22/2019,1262500.0,1/23/2019,1275000.0,3/24/2017,1079000.0,nan,nan,https://www.zillow.com/homedetails/155-Wingo-Way-433-Mount-Pleasant-SC-29464/247522425_zpid/,2015,451.0,Jan 2016,379.0,Sold for,1200.0,Dec 2017,1100.0,Listed for,1300,nan,nan
56,https://www.zillow.com/homedetails/536-Island-Wal-W-Mount-Pleasant-SC-29464/68355919_zpid/,536 Island Wal W Mount Pleasant SC 29464,32.8544397,-79.86113950000001,1299000.0,4.0,5.0,4246.0,2004,8/1/2020,1299000.0,11/8/2019,1325000.0,9/8/2019,1325000.0,7/5/2019,1325000.0,9/1/2018,1350000.0,8/26/2013,965000.0,8/22/2012,832817.0,https://www.zillow.com/homedetails/536-Island-Wal-W-Mount-Pleasant-SC-29464/68355919_zpid/,2015,1000.0,Jan 2016,1100.0,Jan 2017,1100.0,Dec 2017,1100.0,Jan 2019,1300,Feb 2020,1200.0
57,https://www.zillow.com/homedetails/2040-Ashburton-Way-Mount-Pleasant-SC-29466/82548435_zpid/,2040 Ashburton Way Mount Pleasant SC 29466,32.9127197,-79.78434190000002,1295000.0,5.0,4.0,4147.0,2006,9/2/2020,1295000.0,8/28/2020,1350000.0,8/22/2020,1375000.0,8/14/2020,1395000.0,8/9/2018,1057500.0,5/26/2018,1090000.0,3/24/2018,1090000.0,https://www.zillow.com/homedetails/2040-Ashburton-Way-Mount-Pleasant-SC-29466/82548435_zpid/,2015,1000.0,Sold for,1200.0,Jan 2017,1200.0,Dec 2017,1300.0,Jan 2019,1100,Feb 2020,1100.0
58,https://www.zillow.com/homedetails/548-Galera-Ln-Mount-Pleasant-SC-29464/102985446_zpid/,548 Galera Ln Mount Pleasant SC 29464,32.8510277,-79.86734759999999,1284000.0,5.0,7.0,5226.0,2009,8/25/2020,1284000.0,7/30/2020,1289000.0,7/1/2020,1299000.0,5/15/2020,1300000.0,9/22/2017,1290000.0,4/12/2017,1290000.0,3/7/2011,535000.0,https://www.zillow.com/homedetails/548-Galera-Ln-Mount-Pleasant-SC-29464/102985446_zpid/,2015,1000.0,Jan 2016,920.0,Jan 2017,1000.0,Dec 2017,1200.0,Jan 2019,973,Feb 2020,1000.0
59,https://www.zillow.com/homedetails/236-S-Plaza-Ct-213-Mount-Pleasant-SC-29464/2078201972_zpid/,236 S Plaza Ct #213 Mount Pleasant SC 29464,32.797369,-79.903699,1275000.0,3.0,3.0,2026.0,2002,8/18/2020,1275000.0,nan,nan,nan,nan,nan,nan,nan,nan,nan,nan,nan,nan,https://www.zillow.com/homedetails/236-S-Plaza-Ct-213-Mount-Pleasant-SC-29464/2078201972_zpid/,2015,nan,Oct 2015,nan,Oct 2016,nan,Sep 2017,nan,Sep 2018,nan,Sep 2019,nan
60,https://www.zillow.com/homedetails/1612-Marsh-Harbor-Ln-Mount-Pleasant-SC-29464/61473012_zpid/,1612 Marsh Harbor Ln Mount Pleasant SC 29464,32.774900300000006,-79.8452113,1250000.0,4.0,4.0,2898.0,2002,8/8/2020,1250000.0,4/28/2020,1185000.0,11/6/2019,1270000.0,10/1/2019,1350000.0,8/14/2019,1450000.0,7/23/2019,1590000.0,5/30/2019,1650000.0,https://www.zillow.com/homedetails/1612-Marsh-Harbor-Ln-Mount-Pleasant-SC-29464/61473012_zpid/,2015,nan,nan,nan,nan,nan,nan,nan,nan,nan,nan,nan
61,https://www.zillow.com/homedetails/832-Marsh-Grove-Ave-Mount-Pleasant-SC-29464/88886812_zpid/,832 Marsh Grove Ave Mount Pleasant SC 29464,32.7849494,-79.855298,1250000.0,4.0,5.0,3364.0,2007,9/5/2020,1250000.0,4/30/2003,160000.0,nan,nan,nan,nan,nan,nan,nan,nan,nan,nan,https://www.zillow.com/homedetails/832-Marsh-Grove-Ave-Mount-Pleasant-SC-29464/88886812_zpid/,2015,918.0,Jan 2016,959.0,Jan 2017,968.0,Dec 2017,1100.0,Jan 2019,1200,Feb 2020,1100.0
62,https://www.zillow.com/homedetails/2836-Stay-Sail-Way-Mount-Pleasant-SC-29466/110231696_zpid/,2836 Stay Sail Way Mount Pleasant SC 29466,32.925500899999996,-79.8069517,1250000.0,3.0,5.0,3488.0,2012,9/1/2020,1250000.0,3/15/2005,469900.0,nan,nan,nan,nan,nan,nan,nan,nan,nan,nan,https://www.zillow.com/homedetails/2836-Stay-Sail-Way-Mount-Pleasant-SC-29466/110231696_zpid/,2015,551.0,Jan 2016,676.0,Jan 2017,947.0,Dec 2017,1100.0,Jan 2019,1100,Feb 2020,1000.0
63,https://www.zillow.com/homedetails/3807-Sawyers-Island-Dr-Mount-Pleasant-SC-29466/2078969162_zpid/,3807 Sawyers Island Dr Mount Pleasant SC 29466,32.9052298,-79.750632,1250000.0,5.0,5.0,3929.0,No Data,7/31/2020,1250000.0,6/26/2020,1200000.0,nan,nan,nan,nan,nan,nan,nan,nan,nan,nan,https://www.zillow.com/homedetails/3807-Sawyers-Island-Dr-Mount-Pleasant-SC-29466/2078969162_zpid/,2015,nan,Oct 2015,nan,Oct 2016,nan,Sep 2017,nan,Sep 2018,nan,Sep 2019,nan
64,https://www.zillow.com/homedetails/1408-Stratton-Pl-Mount-Pleasant-SC-29466/247532806_zpid/,1408 Stratton Pl Mount Pleasant SC 29466,32.8697474,-79.75620119999999,1250000.0,4.0,4.0,3258.0,2018,9/1/2020,1250000.0,6/6/2018,783320.0,nan,nan,nan,nan,nan,nan,nan,nan,nan,nan,https://www.zillow.com/homedetails/1408-Stratton-Pl-Mount-Pleasant-SC-29466/247532806_zpid/,2015,nan,Oct 2015,nan,Oct 2016,nan,Sep 2017,nan,Sep 2018,nan,Sep 2019,nan
65,https://www.zillow.com/homedetails/1212-Clonmel-Pl-Mount-Pleasant-SC-29464/247529010_zpid/,1212 Clonmel Pl Mount Pleasant SC 29464,52.355817200000004,-7.690255099999999,1249900.0,6.0,6.0,4000.0,2020,8/19/2020,1249900.0,8/12/2020,1249900.0,7/21/2020,1249900.0,7/14/2020,1295900.0,6/24/2020,1298500.0,6/2/2020,1375000.0,5/15/2020,1449500.0,https://www.zillow.com/homedetails/1212-Clonmel-Pl-Mount-Pleasant-SC-29464/247529010_zpid/,2015,474.0,nan,nan,nan,nan,nan,nan,nan,nan,nan,nan
66,https://www.zillow.com/homedetails/333-Evian-Way-Mount-Pleasant-SC-29464/82544431_zpid/,333 Evian Way Mount Pleasant SC 29464,32.8541635,-79.8641498,1229000.0,5.0,4.0,4444.0,2006,8/16/2020,1229000.0,8/19/2010,825000.0,7/4/2010,825000.0,2/26/2010,765000.0,5/28/2009,500.0,4/7/2009,839000.0,8/31/2008,839000.0,https://www.zillow.com/homedetails/333-Evian-Way-Mount-Pleasant-SC-29464/82544431_zpid/,2015,780.0,Jan 2016,860.0,Jan 2017,838.0,Dec 2017,893.0,Jan 2019,919,Feb 2020,926.0
67,https://www.zillow.com/homedetails/425-Hobcaw-Dr-Mount-Pleasant-SC-29464/10921239_zpid/,425 Hobcaw Dr Mount Pleasant SC 29464,32.8161791,-79.88502629999999,1225000.0,4.0,4.0,2615.0,1966,8/20/2020,1225000.0,7/18/2020,1300000.0,9/13/2001,325000.0,nan,nan,nan,nan,nan,nan,nan,nan,https://www.zillow.com/homedetails/425-Hobcaw-Dr-Mount-Pleasant-SC-29464/10921239_zpid/,2015,733.0,Jan 2016,753.0,Jan 2017,809.0,Dec 2017,891.0,Jan 2019,944,Feb 2020,929.0
68,https://www.zillow.com/homedetails/40-Montrose-Rd-Mount-Pleasant-SC-29464/82542813_zpid/,40 Montrose Rd Mount Pleasant SC 29464,32.8192943,-79.88176740000002,1200000.0,4.0,4.0,3047.0,2006,4/16/2020,1200000.0,3/9/2020,1200000.0,3/5/2020,1200000.0,3/8/2012,799000.0,3/7/2012,799000.0,1/14/2010,750000.0,5/24/2004,145000.0,https://www.zillow.com/homedetails/40-Montrose-Rd-Mount-Pleasant-SC-29464/82542813_zpid/,2015,872.0,Jan 2016,898.0,Jan 2017,955.0,Dec 2017,987.0,Jan 2019,1000,Listed for,1000.0
69,https://www.zillow.com/homedetails/2704-Oa-Manor-Dr-Mount-Pleasant-SC-29466/88986687_zpid/,2704 Oa Manor Dr Mount Pleasant SC 29466,32.9143618,-79.8159025,1199000.0,6.0,5.0,6893.0,2007,8/6/2020,1199000.0,5/24/2016,945000.0,5/26/2006,275000.0,8/5/2005,325000.0,1/31/2003,72500.0,8/19/2002,8972126.0,2/9/2001,500000.0,https://www.zillow.com/homedetails/2704-Oa-Manor-Dr-Mount-Pleasant-SC-29466/88986687_zpid/,2015,916.0,Jan 2016,938.0,Jan 2017,963.0,Dec 2017,1000.0,Jan 2019,1100,Feb 2020,1100.0
70,https://www.zillow.com/homedetails/1440-Madison-Ct-Mount-Pleasant-SC-29466/110231837_zpid/,1440 Madison Ct Mount Pleasant SC 29466,32.865390999999995,-79.81890600000001,1198900.0,6.0,6.0,5300.0,2015,3/30/2020,1198900.0,2/1/2020,1199900.0,12/29/2019,1250000.0,9/14/2019,1250000.0,8/31/2019,1254999.0,8/20/2019,1259999.0,8/4/2019,1264999.0,https://www.zillow.com/homedetails/1440-Madison-Ct-Mount-Pleasant-SC-29466/110231837_zpid/,2015,834.0,Jan 2016,875.0,Jan 2017,936.0,Dec 2017,1500.0,Jan 2019,1300,Listed for,1200.0
71,https://www.zillow.com/homedetails/209-N-Shelmore-Blvd-Mount-Pleasant-SC-29464/68394224_zpid/,209 N Shelmore Blvd Mount Pleasant SC 29464,32.8174008,-79.88073940000001,1195000.0,5.0,5.0,3410.0,2004,8/28/2020,1195000.0,7/28/2020,1195000.0,7/8/2020,1195000.0,6/29/2020,1195000.0,5/21/2020,1195000.0,5/5/2020,1250000.0,12/23/2016,940000.0,https://www.zillow.com/homedetails/209-N-Shelmore-Blvd-Mount-Pleasant-SC-29464/68394224_zpid/,2015,892.0,Jan 2016,892.0,Sold for,941.0,Dec 2017,1000.0,Jan 2019,1000,Feb 2020,1100.0
72,https://www.zillow.com/homedetails/238-Cooper-River-Dr-Mount-Pleasant-SC-29464/92385825_zpid/,238 Cooper River Dr Mount Pleasant SC 29464,32.8031162,-79.90030759999999,1195000.0,2.0,3.0,2087.0,2008,7/22/2020,1195000.0,8/5/2013,629000.0,nan,nan,nan,nan,nan,nan,nan,nan,nan,nan,https://www.zillow.com/homedetails/238-Cooper-River-Dr-Mount-Pleasant-SC-29464/92385825_zpid/,2015,813.0,Jan 2016,876.0,Jan 2017,768.0,Dec 2017,918.0,Jan 2019,901,Feb 2020,895.0
73,https://www.zillow.com/homedetails/430-Channel-Cree-Ct-Mount-Pleasant-SC-29464/10929361_zpid/,430 Channel Cree Ct Mount Pleasant SC 29464,32.8310643,-79.86543780000001,1150000.0,4.0,5.0,4388.0,1989,8/18/2020,1150000.0,7/17/2020,1100000.0,6/5/2020,1100000.0,2/11/2020,1100000.0,2/6/2020,1100000.0,1/24/2020,1100000.0,4/21/1999,489500.0,https://www.zillow.com/homedetails/430-Channel-Cree-Ct-Mount-Pleasant-SC-29464/10929361_zpid/,2015,1100.0,Jan 2017,836.0,Dec 2017,860.0,Jan 2019,882.0,Feb 2020,1000,nan,nan
74,https://www.zillow.com/homedetails/1518-Menhaden-Ln-Mount-Pleasant-SC-29466/2090679386_zpid/,1518 Menhaden Ln Mount Pleasant SC 29466,32.86681,-79.75211,1110660.0,4.0,5.0,3200.0,2020,8/16/2020,1110660.0,5/6/2020,1104900.0,3/6/2020,999900.0,2/5/2020,1049900.0,12/10/2019,1103767.0,2/5/2019,339000.0,3/12/2018,339000.0,https://www.zillow.com/homedetails/1518-Menhaden-Ln-Mount-Pleasant-SC-29466/2090679386_zpid/,2015,nan,Oct 2015,nan,Oct 2016,nan,Sep 2017,nan,Sep 2018,nan,Sep 2019,nan
75,https://www.zillow.com/homedetails/1518-Menhaden-Ln-HOMESITE-104-Mount-Pleasant-SC-29466/2081090109_zpid/,1518 Menhaden Ln HOMESITE 104 Mount Pleasant SC 29466,32.8668415,-79.7520993,1110660.0,4.0,5.0,3200.0,2020,8/21/2020,1110660.0,5/12/2020,1104900.0,3/9/2020,999900.0,2/11/2020,1049900.0,nan,nan,nan,nan,nan,nan,https://www.zillow.com/homedetails/1518-Menhaden-Ln-HOMESITE-104-Mount-Pleasant-SC-29466/2081090109_zpid/,2015,nan,Oct 2015,nan,Oct 2016,nan,Sep 2017,nan,Sep 2018,nan,Sep 2019,nan
76,https://www.zillow.com/homedetails/155-Wingo-Way-461-Mount-Pleasant-SC-29464/247523460_zpid/,155 Wingo Way #461 Mount Pleasant SC 29464,32.8037058,-79.8988515,1100000.0,2.0,2.0,1900.0,2016,5/18/2020,1100000.0,4/1/2020,1100000.0,3/9/2020,1100000.0,8/31/2018,988200.0,9/14/2016,889000.0,nan,nan,nan,nan,https://www.zillow.com/homedetails/155-Wingo-Way-461-Mount-Pleasant-SC-29464/247523460_zpid/,2015,279.0,Jan 2016,314.0,Jan 2017,899.0,Dec 2017,960.0,Jan 2019,992,Feb 2020,975.0
76,https://www.zillow.com/homedetails/155-Wingo-Way-461-Mount-Pleasant-SC-29464/247523460_zpid/,155 Wingo Way #461 Mount Pleasant SC 29464,32.8037058,-79.8988515,1100000.0,2.0,2.0,1900.0,2016,5/18/2020,1100000.0,4/1/2020,1100000.0,3/9/2020,1100000.0,8/31/2018,988200.0,9/14/2016,889000.0,nan,nan,nan,nan,https://www.zillow.com/homedetails/155-Wingo-Way-461-Mount-Pleasant-SC-29464/247523460_zpid/,2015,279.0,Jan 2016,314.0,Jan 2017,899.0,Dec 2017,960.0,Jan 2019,992,Feb 2020,975.0
77,https://www.zillow.com/homedetails/1551-Ben-Sawyer-Blvd-UNIT-6-Mount-Pleasant-SC-29464/2078020895_zpid/,1551 Ben Sawyer Blvd UNIT 6 Mount Pleasant SC 29464,32.7862344,-79.85313199999999,1100000.0,3.0,2.0,1908.0,1989,9/2/2020,1100000.0,nan,nan,nan,nan,nan,nan,nan,nan,nan,nan,nan,nan,https://www.zillow.com/homedetails/1551-Ben-Sawyer-Blvd-UNIT-6-Mount-Pleasant-SC-29464/2078020895_zpid/,2015,nan,Oct 2015,nan,Oct 2016,nan,Sep 2017,nan,Sep 2018,nan,Sep 2019,nan
77,https://www.zillow.com/homedetails/1551-Ben-Sawyer-Blvd-UNIT-6-Mount-Pleasant-SC-29464/2078020895_zpid/,1551 Ben Sawyer Blvd UNIT 6 Mount Pleasant SC 29464,32.7862344,-79.85313199999999,1100000.0,3.0,2.0,1908.0,1989,9/2/2020,1100000.0,nan,nan,nan,nan,nan,nan,nan,nan,nan,nan,nan,nan,https://www.zillow.com/homedetails/1551-Ben-Sawyer-Blvd-UNIT-6-Mount-Pleasant-SC-29464/2078020895_zpid/,2015,nan,Oct 2015,nan,Oct 2016,nan,Sep 2017,nan,Sep 2018,nan,Sep 2019,nan
78,https://www.zillow.com/homedetails/2749-Rush-Haven-Dr-Mount-Pleasant-SC-29466/80215095_zpid/,2749 Rush Haven Dr Mount Pleasant SC 29466,32.920370500000004,-79.8149912,1100000.0,5.0,5.0,4716.0,2005,7/29/2020,1100000.0,5/4/2020,1075000.0,3/28/2020,1100000.0,9/29/2012,858000.0,7/28/2012,869000.0,8/26/2011,929000.0,3/7/2011,929000.0,https://www.zillow.com/homedetails/2749-Rush-Haven-Dr-Mount-Pleasant-SC-29466/80215095_zpid/,2015,862.0,Jan 2016,862.0,Jan 2017,952.0,Dec 2017,1000.0,Jan 2019,975,Feb 2020,986.0
78,https://www.zillow.com/homedetails/2749-Rush-Haven-Dr-Mount-Pleasant-SC-29466/80215095_zpid/,2749 Rush Haven Dr Mount Pleasant SC 29466,32.920370500000004,-79.8149912,1100000.0,5.0,5.0,4716.0,2005,7/29/2020,1100000.0,5/4/2020,1075000.0,3/28/2020,1100000.0,9/29/2012,858000.0,7/28/2012,869000.0,8/26/2011,929000.0,3/7/2011,929000.0,https://www.zillow.com/homedetails/2749-Rush-Haven-Dr-Mount-Pleasant-SC-29466/80215095_zpid/,2015,862.0,Jan 2016,862.0,Jan 2017,952.0,Dec 2017,1000.0,Jan 2019,975,Feb 2020,986.0
79,https://www.zillow.com/homedetails/1551-Ben-Sawyer-Blvd-UNIT-6-Mount-Pleasant-SC-29464/2078020895_zpid/,1551 Ben Sawyer Blvd UNIT 6 Mount Pleasant SC 29464,32.7862344,-79.85313199999999,1100000.0,3.0,2.0,1908.0,1989,9/2/2020,1100000.0,nan,nan,nan,nan,nan,nan,nan,nan,nan,nan,nan,nan,https://www.zillow.com/homedetails/1551-Ben-Sawyer-Blvd-UNIT-6-Mount-Pleasant-SC-29464/2078020895_zpid/,2015,nan,Oct 2015,nan,Oct 2016,nan,Sep 2017,nan,Sep 2018,nan,Sep 2019,nan
79,https://www.zillow.com/homedetails/1551-Ben-Sawyer-Blvd-UNIT-6-Mount-Pleasant-SC-29464/2078020895_zpid/,1551 Ben Sawyer Blvd UNIT 6 Mount Pleasant SC 29464,32.7862344,-79.85313199999999,1100000.0,3.0,2.0,1908.0,1989,9/2/2020,1100000.0,nan,nan,nan,nan,nan,nan,nan,nan,nan,nan,nan,nan,https://www.zillow.com/homedetails/1551-Ben-Sawyer-Blvd-UNIT-6-Mount-Pleasant-SC-29464/2078020895_zpid/,2015,nan,Oct 2015,nan,Oct 2016,nan,Sep 2017,nan,Sep 2018,nan,Sep 2019,nan
80,https://www.zillow.com/homedetails/155-Wingo-Way-461-Mount-Pleasant-SC-29464/247523460_zpid/,155 Wingo Way #461 Mount Pleasant SC 29464,32.8037058,-79.8988515,1100000.0,2.0,2.0,1900.0,2016,5/18/2020,1100000.0,4/1/2020,1100000.0,3/9/2020,1100000.0,8/31/2018,988200.0,9/14/2016,889000.0,nan,nan,nan,nan,https://www.zillow.com/homedetails/155-Wingo-Way-461-Mount-Pleasant-SC-29464/247523460_zpid/,2015,279.0,Jan 2016,314.0,Jan 2017,899.0,Dec 2017,960.0,Jan 2019,992,Feb 2020,975.0
80,https://www.zillow.com/homedetails/155-Wingo-Way-461-Mount-Pleasant-SC-29464/247523460_zpid/,155 Wingo Way #461 Mount Pleasant SC 29464,32.8037058,-79.8988515,1100000.0,2.0,2.0,1900.0,2016,5/18/2020,1100000.0,4/1/2020,1100000.0,3/9/2020,1100000.0,8/31/2018,988200.0,9/14/2016,889000.0,nan,nan,nan,nan,https://www.zillow.com/homedetails/155-Wingo-Way-461-Mount-Pleasant-SC-29464/247523460_zpid/,2015,279.0,Jan 2016,314.0,Jan 2017,899.0,Dec 2017,960.0,Jan 2019,992,Feb 2020,975.0
81,https://www.zillow.com/homedetails/2749-Rush-Haven-Dr-Mount-Pleasant-SC-29466/80215095_zpid/,2749 Rush Haven Dr Mount Pleasant SC 29466,32.920370500000004,-79.8149912,1100000.0,5.0,5.0,4716.0,2005,7/29/2020,1100000.0,5/4/2020,1075000.0,3/28/2020,1100000.0,9/29/2012,858000.0,7/28/2012,869000.0,8/26/2011,929000.0,3/7/2011,929000.0,https://www.zillow.com/homedetails/2749-Rush-Haven-Dr-Mount-Pleasant-SC-29466/80215095_zpid/,2015,862.0,Jan 2016,862.0,Jan 2017,952.0,Dec 2017,1000.0,Jan 2019,975,Feb 2020,986.0
81,https://www.zillow.com/homedetails/2749-Rush-Haven-Dr-Mount-Pleasant-SC-29466/80215095_zpid/,2749 Rush Haven Dr Mount Pleasant SC 29466,32.920370500000004,-79.8149912,1100000.0,5.0,5.0,4716.0,2005,7/29/2020,1100000.0,5/4/2020,1075000.0,3/28/2020,1100000.0,9/29/2012,858000.0,7/28/2012,869000.0,8/26/2011,929000.0,3/7/2011,929000.0,https://www.zillow.com/homedetails/2749-Rush-Haven-Dr-Mount-Pleasant-SC-29466/80215095_zpid/,2015,862.0,Jan 2016,862.0,Jan 2017,952.0,Dec 2017,1000.0,Jan 2019,975,Feb 2020,986.0
82,https://www.zillow.com/homedetails/3803-Sawyers-Island-Dr-Mount-Pleasant-SC-29466/2078969163_zpid/,3803 Sawyers Island Dr Mount Pleasant SC 29466,32.9052298,-79.750632,1100000.0,6.0,6.0,3720.0,No Data,6/26/2020,1100000.0,nan,nan,nan,nan,nan,nan,nan,nan,nan,nan,nan,nan,https://www.zillow.com/homedetails/3803-Sawyers-Island-Dr-Mount-Pleasant-SC-29466/2078969163_zpid/,2015,nan,Oct 2015,nan,Oct 2016,nan,Sep 2017,nan,Sep 2018,nan,Sep 2019,nan
83,https://www.zillow.com/homedetails/72-Sowell-St-Mount-Pleasant-SC-29464/52905277_zpid/,72 Sowell St Mount Pleasant SC 29464,32.814663,-79.87571,1095000.0,4.0,4.0,3750.0,1999,7/23/2020,1095000.0,7/7/2020,1125000.0,6/5/2020,1150000.0,3/20/2020,1150000.0,3/6/2020,1150000.0,2/19/2020,1150000.0,1/24/2020,1175000.0,https://www.zillow.com/homedetails/72-Sowell-St-Mount-Pleasant-SC-29464/52905277_zpid/,2015,989.0,Jan 2016,1200.0,Jan 2017,1300.0,Dec 2017,806.0,Jan 2019,837,Feb 2020,1100.0
84,https://www.zillow.com/homedetails/87-Latitude-Ln-Mount-Pleasant-SC-29464/68392254_zpid/,87 Latitude Ln Mount Pleasant SC 29464,32.816086999999996,-79.878606,1090000.0,4.0,4.0,4638.0,2003,4/29/2020,1090000.0,4/9/2020,1099500.0,2/14/2020,1299000.0,1/28/2020,1399000.0,11/20/2018,4900.0,10/25/2018,4900.0,9/25/2018,5600.0,https://www.zillow.com/homedetails/87-Latitude-Ln-Mount-Pleasant-SC-29464/68392254_zpid/,2015,1400.0,Jan 2016,1500.0,Jan 2017,1600.0,Dec 2017,1700.0,Jan 2019,1700,Listed for,1300.0
85,https://www.zillow.com/homedetails/1778-Canyon-Oas-Dr-Mount-Pleasant-SC-29464/68391627_zpid/,1778 Canyon Oas Dr Mount Pleasant SC 29464,32.8111555,-79.81835799999999,1079000.0,4.0,4.0,3300.0,2003,5/27/2020,1079000.0,7/10/2007,925000.0,4/1/2002,75000.0,nan,nan,nan,nan,nan,nan,nan,nan,https://www.zillow.com/homedetails/1778-Canyon-Oas-Dr-Mount-Pleasant-SC-29464/68391627_zpid/,2015,712.0,Jan 2016,795.0,Jan 2017,776.0,Dec 2017,826.0,Jul 2019,794,Aug 2020,1000.0
86,https://www.zillow.com/homedetails/403-Patjens-Ln-Mount-Pleasant-SC-29464/10924042_zpid/,403 Patjens Ln Mount Pleasant SC 29464,32.7891522,-79.8775708,1075000.0,4.0,4.0,2509.0,1973,8/17/2020,1075000.0,6/9/2020,1175000.0,2/6/2020,1275000.0,nan,nan,nan,nan,nan,nan,nan,nan,https://www.zillow.com/homedetails/403-Patjens-Ln-Mount-Pleasant-SC-29464/10924042_zpid/,2015,775.0,Jul 2018,850.0,Aug 2020,1000.0,Jul 2019,918.0,nan,nan,nan,nan
87,https://www.zillow.com/homedetails/736-Stucco-Ln-Mount-Pleasant-SC-29464/88983914_zpid/,736 Stucco Ln Mount Pleasant SC 29464,32.853774699999995,-79.86929930000001,1060000.0,5.0,6.0,4438.0,2007,8/6/2020,1060000.0,6/30/2020,1175000.0,6/15/2020,1225000.0,6/4/2020,1264000.0,10/4/2012,885000.0,9/28/2007,1054565.0,11/18/2005,129000.0,https://www.zillow.com/homedetails/736-Stucco-Ln-Mount-Pleasant-SC-29464/88983914_zpid/,2015,1000.0,Jan 2016,963.0,Jan 2017,1200.0,Dec 2017,1300.0,Jan 2019,1200,Feb 2020,1300.0
88,https://www.zillow.com/homedetails/1010-Laeview-Dr-Mount-Pleasant-SC-29464/10922528_zpid/,1010 Laeview Dr Mount Pleasant SC 29464,32.799808,-79.88189859999999,1050000.0,4.0,3.0,2721.0,1955,9/5/2020,1050000.0,nan,nan,nan,nan,nan,nan,nan,nan,nan,nan,nan,nan,https://www.zillow.com/homedetails/1010-Laeview-Dr-Mount-Pleasant-SC-29464/10922528_zpid/,2015,530.0,Jan 2016,567.0,Jan 2017,579.0,Dec 2017,614.0,Jan 2019,714,Feb 2020,749.0
89,https://www.zillow.com/homedetails/1907-Bolden-Dr-Mount-Pleasant-SC-29466/2078046743_zpid/,1907 Bolden Dr Mount Pleasant SC 29466,32.9029502,-79.7520329,1045000.0,4.0,5.0,3548.0,No Data,8/30/2020,1045000.0,nan,nan,nan,nan,nan,nan,nan,nan,nan,nan,nan,nan,https://www.zillow.com/homedetails/1907-Bolden-Dr-Mount-Pleasant-SC-29466/2078046743_zpid/,2015,1000.0,Sep 2017,nan,Sep 2018,nan,Sep 2019,nan,nan,nan,nan,nan
90,https://www.zillow.com/homedetails/93-Jane-Jacobs-St-Mount-Pleasant-SC-29464/247524094_zpid/,93 Jane Jacobs St Mount Pleasant SC 29464,32.8171619,-79.88271359999999,1039000.0,4.0,4.0,2684.0,2016,5/25/2020,1039000.0,7/5/2019,1059000.0,5/4/2019,1059000.0,2/4/2019,1079000.0,8/10/2018,1099000.0,8/30/2016,995000.0,12/19/2014,292000.0,https://www.zillow.com/homedetails/93-Jane-Jacobs-St-Mount-Pleasant-SC-29464/247524094_zpid/,2015,477.0,Jan 2016,578.0,Jan 2017,1000.0,Dec 2017,1100.0,Jan 2019,1100,Feb 2020,1200.0
91,https://www.zillow.com/homedetails/125-N-Plaza-Ct-Mount-Pleasant-SC-29464/68394180_zpid/,125 N Plaza Ct Mount Pleasant SC 29464,32.797369,-79.903699,1029000.0,3.0,3.0,2066.0,2002,8/23/2020,1029000.0,6/3/2020,1049000.0,8/2/2005,875000.0,7/21/2003,665000.0,nan,nan,nan,nan,nan,nan,https://www.zillow.com/homedetails/125-N-Plaza-Ct-Mount-Pleasant-SC-29464/68394180_zpid/,2015,818.0,Jan 2016,826.0,Jan 2017,733.0,Dec 2017,729.0,Jan 2019,810,Feb 2020,838.0
93,https://www.zillow.com/homedetails/1494-Menhaden-Ln-Mount-Pleasant-SC-29466/2081146331_zpid/,1494 Menhaden Ln Mount Pleasant SC 29466,32.867543,-79.751209,999900.0,5.0,5.0,3600.0,2020,7/10/2020,999900.0,3/6/2020,1099900.0,2/6/2020,1165800.0,nan,nan,nan,nan,nan,nan,nan,nan,https://www.zillow.com/homedetails/1494-Menhaden-Ln-Mount-Pleasant-SC-29466/2081146331_zpid/,2015,nan,Oct 2015,nan,Oct 2016,nan,Sep 2017,nan,Sep 2018,nan,Sep 2019,nan
94,https://www.zillow.com/homedetails/2676-Crooed-Stic-Ln-Mount-Pleasant-SC-29466/88986842_zpid/,2676 Crooed Stic Ln Mount Pleasant SC 29466,32.880914600000004,-79.8290396,999900.0,4.0,3.0,4305.0,2007,8/7/2020,999900.0,7/3/2020,1000000.0,6/7/2020,1025000.0,5/27/2020,1048800.0,5/23/2020,1048900.0,2/18/2020,1049000.0,2/15/2020,1049200.0,https://www.zillow.com/homedetails/2676-Crooed-Stic-Ln-Mount-Pleasant-SC-29466/88986842_zpid/,2015,925.0,Jan 2016,926.0,Jan 2017,935.0,Dec 2017,949.0,Jan 2019,962,Feb 2020,1000.0
95,https://www.zillow.com/homedetails/1494-Menhaden-Ln-HOMESITE-109-Mount-Pleasant-SC-29466/2079745343_zpid/,1494 Menhaden Ln HOMESITE 109 Mount Pleasant SC 29466,32.867543,-79.751209,999900.0,5.0,5.0,3600.0,2020,7/12/2020,999900.0,5/6/2020,1099900.0,nan,nan,nan,nan,nan,nan,nan,nan,nan,nan,https://www.zillow.com/homedetails/1494-Menhaden-Ln-HOMESITE-109-Mount-Pleasant-SC-29466/2079745343_zpid/,2015,971.0,nan,nan,nan,nan,nan,nan,nan,nan,nan,nan
95,https://www.zillow.com/homedetails/1494-Menhaden-Ln-HOMESITE-109-Mount-Pleasant-SC-29466/2079745343_zpid/,1494 Menhaden Ln HOMESITE 109 Mount Pleasant SC 29466,32.867543,-79.751209,999900.0,5.0,5.0,3600.0,2020,7/12/2020,999900.0,5/6/2020,1099900.0,nan,nan,nan,nan,nan,nan,nan,nan,nan,nan,https://www.zillow.com/homedetails/1494-Menhaden-Ln-HOMESITE-109-Mount-Pleasant-SC-29466/2079745343_zpid/,2015,971.0,nan,nan,nan,nan,nan,nan,nan,nan,nan,nan
96,https://www.zillow.com/homedetails/1493-Red-Tide-Rd-Mount-Pleasant-SC-29466/247527103_zpid/,1493 Red Tide Rd Mount Pleasant SC 29466,32.8261154,-79.8071649,997500.0,4.0,4.0,3884.0,2016,9/3/2020,880000.0,7/17/2020,997500.0,6/5/2020,997500.0,3/21/2017,749900.0,nan,nan,nan,nan,nan,nan,https://www.zillow.com/homedetails/1493-Red-Tide-Rd-Mount-Pleasant-SC-29466/247527103_zpid/,2015,880.0,Jan 2016,nan,Jan 2017,nan,Dec 2017,787.0,Jan 2019,808,Feb 2020,838.0
97,https://www.zillow.com/homedetails/404-Morrison-St-Mount-Pleasant-SC-29464/10924029_zpid/,404 Morrison St Mount Pleasant SC 29464,32.7874609,-79.8744792,995000.0,3.0,4.0,2472.0,1986,8/7/2020,995000.0,7/25/2020,1039000.0,6/29/2020,1079000.0,5/14/1992,82500.0,nan,nan,nan,nan,nan,nan,https://www.zillow.com/homedetails/404-Morrison-St-Mount-Pleasant-SC-29464/10924029_zpid/,2015,216.0,Jan 2016,274.0,Jan 2017,352.0,Dec 2017,395.0,Jan 2019,499,Feb 2020,429.0
98,https://www.zillow.com/homedetails/1548-Red-Tide-Rd-Mount-Pleasant-SC-29466/247525228_zpid/,1548 Red Tide Rd Mount Pleasant SC 29466,32.8242076,-79.80538759999999,975000.0,5.0,4.0,3916.0,2017,7/27/2020,975000.0,2/28/2018,755700.0,nan,nan,nan,nan,nan,nan,nan,nan,nan,nan,https://www.zillow.com/homedetails/1548-Red-Tide-Rd-Mount-Pleasant-SC-29466/247525228_zpid/,2015,nan,Oct 2015,nan,Oct 2016,nan,Sep 2017,nan,Sep 2018,nan,Sep 2019,nan
99,https://www.zillow.com/homedetails/805-Fiddlers-Point-Ln-Mount-Pleasant-SC-29464/68355870_zpid/,805 Fiddlers Point Ln Mount Pleasant SC 29464,32.810125,-79.90044420000001,975000.0,5.0,4.0,3734.0,2003,8/13/2020,975000.0,7/18/2020,995000.0,7/2/2020,1025000.0,6/14/2017,820000.0,6/13/2017,850000.0,5/19/2017,850000.0,5/1/2017,850000.0,https://www.zillow.com/homedetails/805-Fiddlers-Point-Ln-Mount-Pleasant-SC-29464/68355870_zpid/,2015,746.0,Jan 2016,767.0,Jan 2017,915.0,Dec 2017,848.0,Jan 2019,873,Feb 2020,903.0
100,https://www.zillow.com/homedetails/387-Evian-Way-Mount-Pleasant-SC-29464/110217579_zpid/,387 Evian Way Mount Pleasant SC 29464,32.8535719,-79.8634113,975000.0,5.0,4.0,3667.0,2012,8/10/2020,975000.0,6/2/2020,999000.0,5/10/2020,1050000.0,4/14/2020,1075000.0,6/5/2015,872500.0,4/1/2015,890000.0,1/20/2012,140000.0,https://www.zillow.com/homedetails/387-Evian-Way-Mount-Pleasant-SC-29464/110217579_zpid/,2015,674.0,Jan 2016,902.0,Jan 2017,931.0,Dec 2017,1000.0,Jan 2019,1000,Feb 2020,1000.0
101,https://www.zillow.com/homedetails/1880-Cheroee-Rose-Cir-Mount-Pleasant-SC-29466/10939283_zpid/,1880 Cheroee Rose Cir Mount Pleasant SC 29466,32.8958808,-79.80187579999999,975000.0,5.0,5.0,5336.0,1996,8/29/2020,975000.0,8/13/2020,975000.0,7/20/2020,975000.0,6/3/2020,985000.0,2/14/2020,999999.0,10/1/2015,985000.0,9/3/2015,985000.0,https://www.zillow.com/homedetails/1880-Cheroee-Rose-Cir-Mount-Pleasant-SC-29466/10939283_zpid/,2015,747.0,Jan 2016,788.0,Jan 2017,789.0,Dec 2017,870.0,Jan 2019,807,Listed for,775.0
102,https://www.zillow.com/homedetails/155-Wingo-Way-424-Mount-Pleasant-SC-29464/247524543_zpid/,155 Wingo Way #424 Mount Pleasant SC 29464,32.8037058,-79.8988515,970000.0,2.0,3.0,1850.0,2016,7/25/2020,970000.0,11/7/2019,998000.0,9/9/2019,1060000.0,7/30/2019,1060000.0,7/20/2019,1060000.0,8/30/2016,858000.0,nan,nan,https://www.zillow.com/homedetails/155-Wingo-Way-424-Mount-Pleasant-SC-29464/247524543_zpid/,2015,268.0,Jan 2016,280.0,Jan 2017,869.0,Dec 2017,928.0,Jan 2019,959,Feb 2020,950.0
103,https://www.zillow.com/homedetails/2708-Oa-Manor-Dr-Mount-Pleasant-SC-29466/80213556_zpid/,2708 Oa Manor Dr Mount Pleasant SC 29466,32.914604,-79.8163452,969900.0,5.0,5.0,5032.0,2005,9/3/2020,969900.0,7/11/2020,989900.0,11/9/2019,989900.0,4/24/2019,989900.0,7/24/2015,825000.0,3/7/2015,895000.0,11/30/2013,850000.0,https://www.zillow.com/homedetails/2708-Oa-Manor-Dr-Mount-Pleasant-SC-29466/80213556_zpid/,2015,747.0,Jan 2016,846.0,Jan 2017,872.0,Dec 2017,936.0,Jan 2019,945,Feb 2020,998.0
104,https://www.zillow.com/homedetails/2118-Shell-Ring-Cir-Mount-Pleasant-SC-29466/52906565_zpid/,2118 Shell Ring Cir Mount Pleasant SC 29466,32.908390399999995,-79.79609609999999,968000.0,5.0,4.0,4090.0,1998,8/31/2020,968000.0,8/9/2020,969000.0,6/25/2014,630000.0,5/20/2014,649000.0,3/20/2014,649000.0,11/18/2003,330000.0,5/1/2003,190000.0,https://www.zillow.com/homedetails/2118-Shell-Ring-Cir-Mount-Pleasant-SC-29466/52906565_zpid/,2015,643.0,Jan 2016,695.0,Jan 2017,721.0,Dec 2017,676.0,Jan 2019,894,Feb 2020,862.0
105,https://www.zillow.com/homedetails/1919-Bolden-Dr-Mt-Pleasant-SC-29466/2081287380_zpid/,1919 Bolden Dr Mt. Pleasant SC 29466,32.9029502,-79.7520329,965000.0,5.0,5.0,3332.0,No Data,6/25/2020,965000.0,2/29/2020,950000.0,1/27/2020,945000.0,nan,nan,nan,nan,nan,nan,nan,nan,https://www.zillow.com/homedetails/1919-Bolden-Dr-Mt-Pleasant-SC-29466/2081287380_zpid/,2015,nan,Oct 2015,nan,Oct 2016,nan,Sep 2017,nan,Sep 2018,nan,Sep 2019,nan
106,https://www.zillow.com/homedetails/1389-Scotts-Cree-Cir-Mount-Pleasant-SC-29464/110234858_zpid/,1389 Scotts Cree Cir Mount Pleasant SC 29464,32.798411699999996,-79.8427825,959900.0,4.0,4.0,3194.0,2014,8/15/2020,959900.0,7/28/2020,964900.0,7/3/2020,969900.0,12/18/2013,240000.0,9/29/2013,259000.0,6/28/2013,259000.0,3/2/2013,279000.0,https://www.zillow.com/homedetails/1389-Scotts-Cree-Cir-Mount-Pleasant-SC-29464/110234858_zpid/,2015,nan,Oct 2015,nan,Oct 2016,nan,Sep 2017,nan,Sep 2018,nan,Sep 2019,nan
107,https://www.zillow.com/homedetails/3572-Henrietta-Hartford-Rd-Mount-Pleasant-SC-29466/68383113_zpid/,3572 Henrietta Hartford Rd Mount Pleasant SC 29466,32.9045734,-79.7931186,959000.0,4.0,4.0,3433.0,2003,8/25/2020,959000.0,8/7/2020,999500.0,5/31/2011,675000.0,10/13/2008,750000.0,2/7/2008,875000.0,9/11/2003,570000.0,7/25/2003,693975.0,https://www.zillow.com/homedetails/3572-Henrietta-Hartford-Rd-Mount-Pleasant-SC-29466/68383113_zpid/,2015,720.0,Jan 2016,751.0,Jan 2017,781.0,Dec 2017,867.0,Jan 2019,825,Feb 2020,806.0
108,https://www.zillow.com/homedetails/2316-Buctail-Ct-Mount-Pleasant-SC-29466/247531072_zpid/,2316 Buctail Ct Mount Pleasant SC 29466,32.915405,-79.822936,955000.0,4.0,4.0,3312.0,2017,8/16/2020,955000.0,5/21/2020,975000.0,4/21/2018,870000.0,nan,nan,nan,nan,nan,nan,nan,nan,https://www.zillow.com/homedetails/2316-Buctail-Ct-Mount-Pleasant-SC-29466/247531072_zpid/,2015,nan,Oct 2015,nan,Oct 2016,nan,Sep 2017,nan,Sep 2018,nan,Sep 2019,nan
109,https://www.zillow.com/homedetails/1564-Home-Farm-Rd-Mount-Pleasant-SC-29464/10926816_zpid/,1564 Home Farm Rd Mount Pleasant SC 29464,32.7917079,-79.8469618,950000.0,5.0,4.0,3969.0,1995,8/4/2020,950000.0,7/3/2020,1122000.0,4/9/2020,1320000.0,nan,nan,nan,nan,nan,nan,nan,nan,https://www.zillow.com/homedetails/1564-Home-Farm-Rd-Mount-Pleasant-SC-29464/10926816_zpid/,2015,867.0,Jan 2016,961.0,Jan 2017,1200.0,Dec 2017,1100.0,Jan 2019,1300,Feb 2020,1300.0
110,https://www.zillow.com/homedetails/399-Sirop-Ct-Mount-Pleasant-SC-29464/10921527_zpid/,399 Sirop Ct Mount Pleasant SC 29464,32.814105,-79.8838295,950000.0,4.0,5.0,2746.0,1991,8/28/2020,950000.0,7/2/2008,489000.0,2/2/2008,489000.0,5/1/2001,351000.0,nan,nan,nan,nan,nan,nan,https://www.zillow.com/homedetails/399-Sirop-Ct-Mount-Pleasant-SC-29464/10921527_zpid/,2015,685.0,Jan 2016,757.0,Jan 2017,742.0,Dec 2017,760.0,Jan 2019,751,Feb 2020,759.0
111,https://www.zillow.com/homedetails/1360-Penshell-Pl-Mount-Pleasant-SC-29464/92382726_zpid/,1360 Penshell Pl Mount Pleasant SC 29464,32.8086672,-79.8439203,950000.0,4.0,4.0,3800.0,2008,7/3/2020,950000.0,11/29/2006,250000.0,nan,nan,nan,nan,nan,nan,nan,nan,nan,nan,https://www.zillow.com/homedetails/1360-Penshell-Pl-Mount-Pleasant-SC-29464/92382726_zpid/,2015,663.0,Jan 2016,674.0,Jan 2017,711.0,Dec 2017,760.0,Jan 2019,775,Feb 2020,758.0
112,https://www.zillow.com/homedetails/4074-Blacmoor-St-Mount-Pleasant-SC-29466/122139273_zpid/,4074 Blacmoor St Mount Pleasant SC 29466,32.8563538,-79.76660079999999,950000.0,6.0,5.0,4227.0,2014,8/14/2020,950000.0,4/25/2014,629900.0,nan,nan,nan,nan,nan,nan,nan,nan,nan,nan,https://www.zillow.com/homedetails/4074-Blacmoor-St-Mount-Pleasant-SC-29466/122139273_zpid/,2015,nan,Jan 2016,701.0,Jan 2017,727.0,Dec 2017,757.0,Jan 2019,755,Feb 2020,738.0
113,https://www.zillow.com/homedetails/3045-Pignatelli-Cres-Mount-Pleasant-SC-29466/68356026_zpid/,3045 Pignatelli Cres Mount Pleasant SC 29466,32.9083166,-79.8100788,949000.0,5.0,4.0,5630.0,2003,6/9/2020,949000.0,10/31/2019,960000.0,5/10/2019,960000.0,2/8/2002,122500.0,nan,nan,nan,nan,nan,nan,https://www.zillow.com/homedetails/3045-Pignatelli-Cres-Mount-Pleasant-SC-29466/68356026_zpid/,2015,891.0,Jan 2016,996.0,Jan 2017,968.0,Dec 2017,1100.0,Jan 2019,972,Feb 2020,994.0
114,https://www.zillow.com/homedetails/1837-Shell-Ring-Cir-Mount-Pleasant-SC-29466/52906591_zpid/,1837 Shell Ring Cir Mount Pleasant SC 29466,32.9152787,-79.78979059999999,940000.0,4.0,4.0,4504.0,1999,9/4/2020,940000.0,6/9/2004,712000.0,nan,nan,nan,nan,nan,nan,nan,nan,nan,nan,https://www.zillow.com/homedetails/1837-Shell-Ring-Cir-Mount-Pleasant-SC-29466/52906591_zpid/,2015,777.0,Jan 2016,862.0,Jan 2017,773.0,Dec 2017,802.0,Jan 2019,811,Feb 2020,810.0
115,https://www.zillow.com/homedetails/336-Shoals-Dr-Mount-Pleasant-SC-29464/110229623_zpid/,336 Shoals Dr Mount Pleasant SC 29464,32.849176,-79.8731907,940000.0,4.0,3.0,4.0,2020,9/4/2020,940000.0,8/11/2020,916300.0,7/31/2020,956500.0,6/25/2020,379900.0,6/19/2020,950000.0,4/7/2020,379900.0,3/13/2020,399900.0,https://www.zillow.com/homedetails/336-Shoals-Dr-Mount-Pleasant-SC-29464/110229623_zpid/,2015,474.0,nan,nan,nan,nan,nan,nan,nan,nan,nan,nan
116,https://www.zillow.com/homedetails/1769-Greenspoint-Ct-Mount-Pleasant-SC-29466/68391703_zpid/,1769 Greenspoint Ct Mount Pleasant SC 29466,32.9193826,-79.809951,937000.0,5.0,5.0,4305.0,2004,8/21/2020,937000.0,7/7/2017,850000.0,5/23/2017,859000.0,4/13/2017,859000.0,2/22/2017,879900.0,1/19/2017,895000.0,11/8/2016,915000.0,https://www.zillow.com/homedetails/1769-Greenspoint-Ct-Mount-Pleasant-SC-29466/68391703_zpid/,2015,862.0,Jan 2016,807.0,Jan 2017,882.0,Dec 2017,876.0,Jan 2019,902,Feb 2020,932.0
117,https://www.zillow.com/homedetails/251-S-Plaza-Ct-Mount-Pleasant-SC-29464/63781604_zpid/,251 S Plaza Ct Mount Pleasant SC 29464,32.797369,-79.903699,925000.0,2.0,3.0,2270.0,2002,8/17/2020,925000.0,8/2/2017,910000.0,6/7/2017,910000.0,3/18/2017,899000.0,12/8/2016,899000.0,10/20/2016,899000.0,3/13/2010,2400.0,https://www.zillow.com/homedetails/251-S-Plaza-Ct-Mount-Pleasant-SC-29464/63781604_zpid/,2015,894.0,Jan 2016,851.0,Jan 2017,842.0,Dec 2017,938.0,Jan 2019,944,Feb 2020,920.0
118,https://www.zillow.com/homedetails/1204-Spottail-Ct-Mount-Pleasant-SC-29466/247527496_zpid/,1204 Spottail Ct Mount Pleasant SC 29466,32.872856,-79.755172,925000.0,5.0,6.0,4508.0,2018,8/22/2020,925000.0,7/19/2020,950000.0,7/4/2020,975000.0,6/1/2018,770000.0,nan,nan,nan,nan,nan,nan,https://www.zillow.com/homedetails/1204-Spottail-Ct-Mount-Pleasant-SC-29466/247527496_zpid/,2015,nan,Oct 2015,nan,Oct 2016,nan,Sep 2017,nan,Sep 2018,nan,Sep 2019,nan
119,https://www.zillow.com/homedetails/3580-Henrietta-Hartford-Rd-Mount-Pleasant-SC-29466/55641542_zpid/,3580 Henrietta Hartford Rd Mount Pleasant SC 29466,32.904720899999994,-79.79252740000001,925000.0,5.0,5.0,4826.0,2001,9/1/2020,925000.0,7/30/2010,855000.0,5/19/2008,1195000.0,5/15/2008,1195000.0,5/12/2008,1385000.0,5/6/2008,1195000.0,4/17/2008,1385000.0,https://www.zillow.com/homedetails/3580-Henrietta-Hartford-Rd-Mount-Pleasant-SC-29466/55641542_zpid/,2015,981.0,Jan 2016,1000.0,Jan 2017,1200.0,Dec 2017,1100.0,Jan 2019,994,Feb 2020,1100.0
120,https://www.zillow.com/homedetails/894-Tupelo-Bay-Dr-LOT-61-Mount-Pleasant-SC-29464/2078610353_zpid/,894 Tupelo Bay Dr LOT 61 Mount Pleasant SC 29464,32.850145,-79.868491,925000.0,4.0,4.0,2736.0,2020,7/21/2020,925000.0,nan,nan,nan,nan,nan,nan,nan,nan,nan,nan,nan,nan,https://www.zillow.com/homedetails/894-Tupelo-Bay-Dr-LOT-61-Mount-Pleasant-SC-29464/2078610353_zpid/,2015,nan,Oct 2015,nan,Oct 2016,nan,Sep 2017,nan,Sep 2018,nan,Sep 2019,nan
121,https://www.zillow.com/homedetails/1139-Fulton-Hall-Ln-Mount-Pleasant-SC-29466/247524491_zpid/,1139 Fulton Hall Ln Mount Pleasant SC 29466,32.847293699999994,-79.80718159999999,924900.0,3.0,4.0,2688.0,2018,7/28/2020,924900.0,7/12/2020,925000.0,7/20/2019,888000.0,6/4/2019,899500.0,4/11/2019,899500.0,5/21/2018,915000.0,6/8/2017,97750.0,https://www.zillow.com/homedetails/1139-Fulton-Hall-Ln-Mount-Pleasant-SC-29466/247524491_zpid/,2015,415.0,Oct 2015,422.0,Oct 2016,309.0,Sep 2017,371.0,Sep 2018,895,Sold for,890.0
122,https://www.zillow.com/homedetails/2855-River-Vista-Way-Mount-Pleasant-SC-29466/92384512_zpid/,2855 River Vista Way Mount Pleasant SC 29466,32.9255619,-79.80467790000002,920000.0,4.0,5.0,5624.0,2008,8/27/2020,920000.0,5/23/2020,970000.0,4/23/2020,1075000.0,2/24/2020,1075000.0,11/9/2016,924000.0,8/28/2016,924000.0,4/17/2016,949000.0,https://www.zillow.com/homedetails/2855-River-Vista-Way-Mount-Pleasant-SC-29466/92384512_zpid/,2015,992.0,Jan 2016,953.0,Jan 2017,880.0,Dec 2017,1100.0,Jan 2019,966,Feb 2020,974.0
123,https://www.zillow.com/homedetails/4902-Sound-View-Dr-Mount-Pleasant-SC-29466/110214815_zpid/,4902 Sound View Dr Mount Pleasant SC 29466,32.854562,-79.766172,919000.0,4.0,4.0,3458.0,2019,9/4/2020,919000.0,8/26/2020,900000.0,7/31/2020,906500.0,7/3/2020,900000.0,6/19/2020,875000.0,3/15/2020,289000.0,3/13/2020,299000.0,https://www.zillow.com/homedetails/4902-Sound-View-Dr-Mount-Pleasant-SC-29466/110214815_zpid/,2015,435.0,nan,nan,nan,nan,nan,nan,nan,nan,nan,nan
124,https://www.zillow.com/homedetails/135-Ionsborough-St-Mount-Pleasant-SC-29464/80211517_zpid/,135 Ionsborough St Mount Pleasant SC 29464,32.814017,-79.88176740000002,899000.0,4.0,3.0,2401.0,2005,8/6/2020,899000.0,6/27/2020,949000.0,6/21/2020,979000.0,6/20/2020,979000.0,6/20/2020,979000.0,7/22/2005,650000.0,4/12/2004,94000.0,https://www.zillow.com/homedetails/135-Ionsborough-St-Mount-Pleasant-SC-29464/80211517_zpid/,2015,636.0,Jan 2016,670.0,Jan 2017,744.0,Dec 2017,742.0,Jan 2019,754,Feb 2020,750.0
125,https://www.zillow.com/homedetails/155-Wingo-Way-414-Mount-Pleasant-SC-29464/2095868420_zpid/,155 Wingo Way #414 Mount Pleasant SC 29464,32.8037058,-79.8988515,899000.0,1.0,2.0,1339.0,2016,7/21/2020,899000.0,10/28/2016,585000.0,8/25/2016,696358.0,nan,nan,nan,nan,nan,nan,nan,nan,https://www.zillow.com/homedetails/155-Wingo-Way-414-Mount-Pleasant-SC-29464/2095868420_zpid/,2015,201.0,Jan 2016,496.0,Jan 2017,705.0,Dec 2017,754.0,Jan 2019,779,Feb 2020,853.0
126,https://www.zillow.com/homedetails/217-Church-St-Mount-Pleasant-SC-29464/10922853_zpid/,217 Church St Mount Pleasant SC 29464,32.7901606,-79.8800723,899000.0,1.0,1.0,773.0,1928,5/28/2020,899000.0,6/27/2002,240000.0,10/10/2000,195000.0,3/29/2000,195000.0,nan,nan,nan,nan,nan,nan,https://www.zillow.com/homedetails/217-Church-St-Mount-Pleasant-SC-29464/10922853_zpid/,2015,453.0,Jan 2016,561.0,Jan 2017,529.0,Dec 2017,603.0,Jan 2019,718,Feb 2020,654.0
127,https://www.zillow.com/homedetails/1401-Lettered-Olive-Ln-Mount-Pleasant-SC-29464/110232306_zpid/,1401 Lettered Olive Ln Mount Pleasant SC 29464,32.8087493,-79.8449269,899000.0,5.0,5.0,3536.0,2014,8/23/2020,899000.0,7/25/2020,875000.0,2/20/2014,571020.0,11/11/2013,569900.0,10/20/2013,569900.0,9/6/2013,549900.0,6/3/2013,120000.0,https://www.zillow.com/homedetails/1401-Lettered-Olive-Ln-Mount-Pleasant-SC-29464/110232306_zpid/,2015,592.0,Jan 2016,643.0,Jan 2017,668.0,Dec 2017,705.0,Jan 2019,734,Feb 2020,679.0
128,https://www.zillow.com/homedetails/1347-Old-Bricyard-Rd-Mount-Pleasant-SC-29466/10937769_zpid/,1347 Old Bricyard Rd Mount Pleasant SC 29466,32.8653551,-79.8143971,899000.0,4.0,4.0,3880.0,1993,8/19/2020,899000.0,7/21/2020,899000.0,7/18/2020,899000.0,4/28/2017,727000.0,6/18/2016,765000.0,6/2/2016,765000.0,5/18/2016,765000.0,https://www.zillow.com/homedetails/1347-Old-Bricyard-Rd-Mount-Pleasant-SC-29466/10937769_zpid/,2015,610.0,Jan 2016,768.0,Jan 2017,637.0,Dec 2017,756.0,Jan 2019,704,Feb 2020,676.0
129,https://www.zillow.com/homedetails/1475-Mossy-Branch-Way-Mount-Pleasant-SC-29464/247524487_zpid/,1475 Mossy Branch Way Mount Pleasant SC 29464,32.7940308,-79.8472577,895000.0,4.0,3.0,3016.0,2017,7/22/2020,895000.0,4/25/2020,899000.0,3/10/2020,959000.0,2/11/2020,959000.0,1/6/2020,979000.0,11/22/2019,949900.0,10/25/2019,949900.0,https://www.zillow.com/homedetails/1475-Mossy-Branch-Way-Mount-Pleasant-SC-29464/247524487_zpid/,2015,nan,Oct 2015,nan,Oct 2016,nan,Sold for,nan,Sep 2018,nan,Sep 2019,nan
130,https://www.zillow.com/homedetails/506-Hicory-Cv-Mount-Pleasant-SC-29464/10929099_zpid/,506 Hicory Cv Mount Pleasant SC 29464,32.834748499999996,-79.861535,895000.0,4.0,3.0,2912.0,1991,9/4/2020,895000.0,12/10/2012,452000.0,11/22/2012,514000.0,9/5/2012,514000.0,7/24/2012,539000.0,9/26/2005,720000.0,8/25/2003,450000.0,https://www.zillow.com/homedetails/506-Hicory-Cv-Mount-Pleasant-SC-29464/10929099_zpid/,2015,737.0,nan,nan,nan,nan,nan,nan,nan,nan,nan,nan
131,https://www.zillow.com/homedetails/3813-Summerton-St-Mount-Pleasant-SC-29466/2079459739_zpid/,3813 Summerton St Mount Pleasant SC 29466,32.906458,-79.7504102,891000.0,4.0,5.0,3262.0,2020,5/24/2020,891000.0,nan,nan,nan,nan,nan,nan,nan,nan,nan,nan,nan,nan,https://www.zillow.com/homedetails/3813-Summerton-St-Mount-Pleasant-SC-29466/2079459739_zpid/,2015,nan,Oct 2015,nan,Oct 2016,nan,Sep 2017,nan,Sep 2018,nan,Sep 2019,nan
132,https://www.zillow.com/homedetails/1127-Harborgate-Dr-Mount-Pleasant-SC-29464/10922447_zpid/,1127 Harborgate Dr Mount Pleasant SC 29464,32.795055100000006,-79.8879577,890000.0,4.0,3.0,2970.0,1979,9/1/2020,890000.0,7/31/2020,915000.0,4/21/2020,950000.0,3/24/2020,975000.0,3/4/2020,1000000.0,2/25/2020,1000000.0,2/16/2020,1000000.0,https://www.zillow.com/homedetails/1127-Harborgate-Dr-Mount-Pleasant-SC-29464/10922447_zpid/,2015,534.0,Jan 2016,597.0,Jan 2017,605.0,Dec 2017,708.0,Jan 2019,777,Feb 2020,1000.0
133,https://www.zillow.com/homedetails/347-Plantation-View-Ln-Mount-Pleasant-SC-29464/10929721_zpid/,347 Plantation View Ln Mount Pleasant SC 29464,32.859647499999994,-79.8309436,890000.0,4.0,4.0,3200.0,1997,9/1/2020,890000.0,8/20/2020,900000.0,nan,nan,nan,nan,nan,nan,nan,nan,nan,nan,https://www.zillow.com/homedetails/347-Plantation-View-Ln-Mount-Pleasant-SC-29464/10929721_zpid/,2015,732.0,Jan 2016,744.0,Jan 2017,627.0,Dec 2017,684.0,Jan 2019,670,Feb 2020,700.0
134,https://www.zillow.com/homedetails/941-Mccants-Dr-Mount-Pleasant-SC-29464/10925784_zpid/,941 Mccants Dr Mount Pleasant SC 29464,32.7920707,-79.857998,889000.0,4.0,3.0,1871.0,1971,9/1/2020,889000.0,10/30/2019,375000.0,10/18/2019,425000.0,8/6/2019,425000.0,7/19/2019,425000.0,7/19/2019,450000.0,7/9/2019,450000.0,https://www.zillow.com/homedetails/941-Mccants-Dr-Mount-Pleasant-SC-29464/10925784_zpid/,2015,536.0,nan,nan,nan,nan,nan,nan,nan,nan,nan,nan
135,https://www.zillow.com/homedetails/175-Civitas-St-Mount-Pleasant-SC-29464/52905300_zpid/,175 Civitas St Mount Pleasant SC 29464,32.81276939999999,-79.878224,885900.0,4.0,3.0,2242.0,2001,9/5/2020,885900.0,8/20/2020,894900.0,8/8/2020,895000.0,8/12/2009,521000.0,1/8/2005,498900.0,nan,nan,nan,nan,https://www.zillow.com/homedetails/175-Civitas-St-Mount-Pleasant-SC-29464/52905300_zpid/,2015,591.0,Jan 2016,609.0,Jan 2017,728.0,Dec 2017,710.0,Jan 2019,727,Feb 2020,750.0
136,https://www.zillow.com/homedetails/2802-Oa-Manor-Dr-Mount-Pleasant-SC-29466/82540971_zpid/,2802 Oa Manor Dr Mount Pleasant SC 29466,32.9165906,-79.8174615,879900.0,5.0,4.0,3289.0,2006,8/31/2020,879900.0,8/20/2020,879900.0,8/12/2020,879900.0,4/29/2020,899900.0,5/19/2015,589000.0,5/16/2015,650000.0,4/11/2015,650000.0,https://www.zillow.com/homedetails/2802-Oa-Manor-Dr-Mount-Pleasant-SC-29466/82540971_zpid/,2015,602.0,Jan 2016,611.0,Jan 2017,631.0,Dec 2017,678.0,Jan 2019,660,Feb 2020,663.0
137,https://www.zillow.com/homedetails/515-Ban-St-Mount-Pleasant-SC-29464/10924466_zpid/,515 Ban St Mount Pleasant SC 29464,32.7870506,-79.8703931,875000.0,4.0,4.0,2066.0,2020,3/13/2020,875000.0,11/19/2018,235000.0,9/28/2018,275000.0,9/28/2018,275000.0,9/18/2018,275000.0,8/29/2018,275000.0,nan,nan,https://www.zillow.com/homedetails/515-Ban-St-Mount-Pleasant-SC-29464/10924466_zpid/,2015,nan,Oct 2015,nan,Oct 2016,nan,Sep 2017,nan,Sold for,nan,Sep 2019,nan
138,https://www.zillow.com/homedetails/2624-Crooed-Stic-Ln-Mount-Pleasant-SC-29466/110212491_zpid/,2624 Crooed Stic Ln Mount Pleasant SC 29466,32.882484999999996,-79.828877,875000.0,5.0,4.0,3801.0,2017,7/25/2020,875000.0,7/24/2020,899000.0,7/23/2020,899000.0,7/3/2020,899000.0,1/25/2020,899000.0,11/19/2019,899000.0,9/18/2019,925000.0,https://www.zillow.com/homedetails/2624-Crooed-Stic-Ln-Mount-Pleasant-SC-29466/110212491_zpid/,2015,640.0,Sold for,845.0,Oct 2016,921.0,Sep 2018,881.0,Sep 2019,896,nan,nan
139,https://www.zillow.com/homedetails/2409-Old-Georgetown-Rd-Mount-Pleasant-SC-29466/125934890_zpid/,2409 Old Georgetown Rd Mount Pleasant SC 29466,32.8477028,-79.8083484,872500.0,3.0,3.0,2714.0,2015,8/11/2020,872500.0,11/4/2019,849000.0,9/10/2019,849000.0,6/25/2019,834900.0,5/4/2019,834900.0,1/31/2019,874900.0,12/21/2018,889000.0,https://www.zillow.com/homedetails/2409-Old-Georgetown-Rd-Mount-Pleasant-SC-29466/125934890_zpid/,2015,427.0,Sold for,702.0,Jan 2017,724.0,Dec 2017,778.0,Jan 2019,853,Feb 2020,729.0
140,https://www.zillow.com/homedetails/3491-Colonel-Vanderhorst-Cir-Mount-Pleasant-SC-29466/10938996_zpid/,3491 Colonel Vanderhorst Cir Mount Pleasant SC 29466,32.914809399999996,-79.79574579999999,860000.0,4.0,4.0,3424.0,1992,8/19/2020,860000.0,8/13/2020,870000.0,7/18/2020,875000.0,5/25/2019,5000.0,4/17/2019,5000.0,9/13/2017,510000.0,9/1/2017,639500.0,https://www.zillow.com/homedetails/3491-Colonel-Vanderhorst-Cir-Mount-Pleasant-SC-29466/10938996_zpid/,2015,635.0,Jan 2016,664.0,Jan 2017,644.0,Dec 2017,519.0,Jan 2019,537,Feb 2020,554.0
141,https://www.zillow.com/homedetails/2107-Sewee-Indian-Ct-Mount-Pleasant-SC-29466/10939271_zpid/,2107 Sewee Indian Ct Mount Pleasant SC 29466,32.902477399999995,-79.80686700000001,854900.0,6.0,5.0,5124.0,2002,8/31/2020,854900.0,8/17/2020,859000.0,8/1/2020,859000.0,2/5/2016,685000.0,12/27/2015,745000.0,11/20/2015,745000.0,10/22/2015,760000.0,https://www.zillow.com/homedetails/2107-Sewee-Indian-Ct-Mount-Pleasant-SC-29466/10939271_zpid/,2015,808.0,Sold for,717.0,Jan 2017,705.0,Dec 2017,756.0,Jan 2019,782,Feb 2020,810.0
142,https://www.zillow.com/homedetails/2797-Hamlin-Beach-Rd-Mount-Pleasant-SC-29466/88986745_zpid/,2797 Hamlin Beach Rd Mount Pleasant SC 29466,32.84299,-79.77893900000001,850000.0,4.0,3.0,4007.0,2007,8/17/2020,850000.0,8/4/2020,870000.0,7/30/2020,890000.0,7/22/2020,910000.0,7/16/2020,920000.0,6/26/2019,715000.0,6/19/2019,715000.0,https://www.zillow.com/homedetails/2797-Hamlin-Beach-Rd-Mount-Pleasant-SC-29466/88986745_zpid/,2015,nan,nan,nan,nan,nan,nan,nan,nan,nan,nan,nan
143,https://www.zillow.com/homedetails/2230-Mother-Of-Pearl-Dr-Mount-Pleasant-SC-29466/247524256_zpid/,2230 Mother Of Pearl Dr Mount Pleasant SC 29466,32.826973800000005,-79.8014063,850000.0,5.0,4.0,3489.0,2018,8/13/2020,850000.0,7/17/2020,4375.0,6/30/2020,4395.0,6/12/2020,4495.0,5/7/2020,4695.0,5/2/2020,884000.0,2/28/2018,658450.0,https://www.zillow.com/homedetails/2230-Mother-Of-Pearl-Dr-Mount-Pleasant-SC-29466/247524256_zpid/,2015,nan,42278,nan,42644,nan,42979,nan,43344,nan,43709,nan
144,https://www.zillow.com/homedetails/3200-Sand-Marsh-Ln-Mount-Pleasant-SC-29466/61473823_zpid/,3200 Sand Marsh Ln Mount Pleasant SC 29466,32.850242,-79.77365920000001,850000.0,4.0,4.0,3363.0,2001,9/4/2020,850000.0,4/3/2000,80001.0,nan,nan,nan,nan,nan,nan,nan,nan,nan,nan,https://www.zillow.com/homedetails/3200-Sand-Marsh-Ln-Mount-Pleasant-SC-29466/61473823_zpid/,2015,667.0,Jan 2016,703.0,Jan 2017,763.0,Dec 2017,835.0,Jan 2019,788,Feb 2020,805.0
145,https://www.zillow.com/homedetails/4113-Colonel-Vanderhorst-Cir-Mount-Pleasant-SC-29466/10938798_zpid/,4113 Colonel Vanderhorst Cir Mount Pleasant SC 29466,32.9236266,-79.7917173,850000.0,5.0,4.0,4027.0,1996,9/4/2020,850000.0,8/24/2020,860000.0,8/7/2020,870000.0,7/30/2020,870000.0,7/16/2020,870000.0,11/17/2014,685000.0,10/14/2014,720000.0,https://www.zillow.com/homedetails/4113-Colonel-Vanderhorst-Cir-Mount-Pleasant-SC-29466/10938798_zpid/,2015,686.0,Jan 2016,735.0,Jan 2017,762.0,Dec 2017,806.0,Jan 2019,757,Feb 2020,743.0
146,https://www.zillow.com/homedetails/1161-Fulton-Hall-Ln-Mount-Pleasant-SC-29466/247524186_zpid/,1161 Fulton Hall Ln Mount Pleasant SC 29466,32.8468447,-79.8058786,845000.0,3.0,3.0,2100.0,2020,11/14/2018,130000.0,7/16/2018,795000.0,3/28/2016,97750.0,nan,nan,nan,nan,nan,nan,nan,nan,https://www.zillow.com/homedetails/1161-Fulton-Hall-Ln-Mount-Pleasant-SC-29466/247524186_zpid/,2015,435.0,nan,nan,nan,nan,nan,nan,nan,nan,nan,nan
147,https://www.zillow.com/homedetails/2250-Crab-Cree-Ct-Mount-Pleasant-SC-29466/110227496_zpid/,2250 Crab Cree Ct Mount Pleasant SC 29466,32.890313,-79.83385190000001,839990.0,5.0,4.0,3094.0,2018,5/13/2020,839990.0,3/30/2020,179990.0,3/20/2020,839990.0,2/27/2020,179990.0,1/31/2020,839990.0,11/30/2019,179990.0,10/29/2019,219990.0,https://www.zillow.com/homedetails/2250-Crab-Cree-Ct-Mount-Pleasant-SC-29466/110227496_zpid/,2015,435.0,nan,nan,nan,nan,nan,nan,nan,nan,nan,nan
148,https://www.zillow.com/homedetails/736-Gate-Post-Dr-Mount-Pleasant-SC-29464/61473028_zpid/,736 Gate Post Dr Mount Pleasant SC 29464,32.7837574,-79.8572671,835000.0,4.0,4.0,2364.0,2002,9/5/2020,835000.0,8/14/2020,869000.0,5/14/2014,575000.0,5/13/2014,540000.0,9/7/2005,530000.0,3/1/2002,355000.0,1/4/2001,810000.0,https://www.zillow.com/homedetails/736-Gate-Post-Dr-Mount-Pleasant-SC-29464/61473028_zpid/,2015,550.0,Jan 2016,594.0,Jan 2017,616.0,Dec 2017,649.0,Jan 2019,682,Feb 2020,677.0
149,https://www.zillow.com/homedetails/4070-Blacmoor-St-Mount-Pleasant-SC-29466/122139205_zpid/,4070 Blacmoor St Mount Pleasant SC 29466,32.8561938,-79.76677600000001,835000.0,5.0,5.0,3770.0,2013,8/12/2020,835000.0,7/14/2020,849500.0,6/9/2020,865000.0,12/5/2017,760000.0,12/5/2017,784000.0,11/14/2017,784000.0,11/3/2017,784000.0,https://www.zillow.com/homedetails/4070-Blacmoor-St-Mount-Pleasant-SC-29466/122139205_zpid/,2015,721.0,Jan 2016,783.0,Jan 2017,731.0,Sold for,763.0,Jan 2019,794,Feb 2020,818.0
150,https://www.zillow.com/homedetails/1842-Shell-Ring-Cir-Mount-Pleasant-SC-29466/52906604_zpid/,1842 Shell Ring Cir Mount Pleasant SC 29466,32.9146608,-79.790754,830000.0,4.0,4.0,3834.0,2001,9/4/2020,830000.0,11/10/2019,4500.0,9/25/2019,5450.0,9/16/2019,6000.0,7/28/2012,4300.0,7/5/2012,4300.0,11/7/2000,493608.0,https://www.zillow.com/homedetails/1842-Shell-Ring-Cir-Mount-Pleasant-SC-29466/52906604_zpid/,2015,657.0,Jan 2016,665.0,Jan 2017,673.0,Dec 2017,690.0,Jan 2019,676,Feb 2020,692.0
151,https://www.zillow.com/homedetails/2040-Shell-Ring-Cir-Mount-Pleasant-SC-29466/52906613_zpid/,2040 Shell Ring Cir Mount Pleasant SC 29466,32.910252299999996,-79.7922428,829900.0,5.0,5.0,4048.0,2000,8/14/2020,829900.0,7/25/2020,849000.0,5/24/2013,690000.0,4/23/2013,695000.0,4/12/2013,695000.0,7/13/2010,595000.0,12/3/2008,827500.0,https://www.zillow.com/homedetails/2040-Shell-Ring-Cir-Mount-Pleasant-SC-29466/52906613_zpid/,2015,750.0,Jan 2016,814.0,Jan 2017,738.0,Dec 2017,748.0,Jan 2019,673,Feb 2020,710.0
152,https://www.zillow.com/homedetails/4-William-St-Mount-Pleasant-SC-29464/10926202_zpid/,4 William St Mount Pleasant SC 29464,32.7771136,-79.86439859999999,825000.0,3.0,3.0,1633.0,1962,5/27/2020,825000.0,9/23/1996,33303.0,nan,nan,nan,nan,nan,nan,nan,nan,nan,nan,https://www.zillow.com/homedetails/4-William-St-Mount-Pleasant-SC-29464/10926202_zpid/,2015,391.0,Jan 2016,627.0,Jan 2017,790.0,Dec 2017,920.0,Jan 2019,855,Feb 2020,891.0
153,https://www.zillow.com/homedetails/1176-Peach-Baset-Ln-Mount-Pleasant-SC-29464/2080898259_zpid/,1176 Peach Baset Ln Mount Pleasant SC 29464,32.8234848,-79.8520818,824900.0,4.0,4.0,2284.0,2020,8/20/2020,824900.0,5/29/2020,814900.0,2/26/2020,15000.0,nan,nan,nan,nan,nan,nan,nan,nan,https://www.zillow.com/homedetails/1176-Peach-Baset-Ln-Mount-Pleasant-SC-29464/2080898259_zpid/,2015,nan,Oct 2015,nan,Oct 2016,nan,Sep 2017,nan,Sep 2018,nan,Sep 2019,nan
154,https://www.zillow.com/homedetails/2224-Syler-Dr-Mount-Pleasant-SC-29466/247522601_zpid/,2224 Syler Dr Mount Pleasant SC 29466,32.828237,-79.803003,822500.0,5.0,5.0,3671.0,2016,8/29/2020,822500.0,10/23/2017,559000.0,2/10/2017,559000.0,nan,nan,nan,nan,nan,nan,nan,nan,https://www.zillow.com/homedetails/2224-Syler-Dr-Mount-Pleasant-SC-29466/247522601_zpid/,2015,nan,Jan 2016,nan,Sold for,566.0,Jan 2019,586.0,Feb 2020,604,nan,nan
155,https://www.zillow.com/homedetails/2863-River-Vista-Way-Mount-Pleasant-SC-29466/110203365_zpid/,2863 River Vista Way Mount Pleasant SC 29466,32.925466,-79.803985,819000.0,4.0,4.0,3458.0,2020,9/4/2020,819000.0,8/11/2020,800000.0,7/7/2020,239000.0,9/23/2005,282500.0,nan,nan,nan,nan,nan,nan,https://www.zillow.com/homedetails/2863-River-Vista-Way-Mount-Pleasant-SC-29466/110203365_zpid/,2015,nan,Oct 2015,nan,Oct 2016,nan,Sep 2017,nan,Sep 2018,nan,Sep 2019,nan
156,https://www.zillow.com/homedetails/2212-Branch-Cree-Dr-Mount-Pleasant-SC-29466/110202892_zpid/,2212 Branch Cree Dr Mount Pleasant SC 29466,32.88862,-79.83361500000001,806500.0,5.0,4.0,3458.0,2020,7/31/2020,806500.0,7/7/2020,800000.0,4/6/2020,785000.0,2/11/2020,168000.0,1/28/2020,180000.0,8/8/2019,180000.0,1/1/2018,180000.0,https://www.zillow.com/homedetails/2212-Branch-Cree-Dr-Mount-Pleasant-SC-29466/110202892_zpid/,2015,nan,Oct 2015,nan,Oct 2016,nan,Sep 2017,nan,Sep 2018,nan,Sep 2019,nan
157,https://www.zillow.com/homedetails/249-Indigo-Bay-Cir-Mount-Pleasant-SC-29464/61473192_zpid/,249 Indigo Bay Cir Mount Pleasant SC 29464,32.8075918,-79.8320816,800000.0,4.0,5.0,2752.0,2002,8/25/2020,800000.0,8/22/2020,800000.0,8/18/2020,800000.0,8/24/2019,749000.0,7/25/2019,749000.0,5/7/2019,759943.0,1/9/2019,784943.0,https://www.zillow.com/homedetails/249-Indigo-Bay-Cir-Mount-Pleasant-SC-29464/61473192_zpid/,2015,675.0,Jan 2016,710.0,Jan 2017,727.0,Dec 2017,740.0,Jan 2019,764,Feb 2020,710.0
158,https://www.zillow.com/homedetails/3834-Fifle-St-Mount-Pleasant-SC-29466/125936152_zpid/,3834 Fifle St Mount Pleasant SC 29466,32.896217,-79.750457,800000.0,5.0,4.0,3420.0,2015,8/23/2020,800000.0,8/18/2020,800000.0,8/12/2020,800000.0,7/15/2020,825000.0,6/22/2020,845000.0,2/20/2020,850000.0,12/29/2015,733048.0,https://www.zillow.com/homedetails/3834-Fifle-St-Mount-Pleasant-SC-29466/125936152_zpid/,2015,550.0,Sold for,733.0,Jan 2017,757.0,Dec 2017,813.0,Jan 2019,820,Listed for,775.0
159,https://www.zillow.com/homedetails/2600-Crooed-Stic-Ln-Mount-Pleasant-SC-29466/88887659_zpid/,2600 Crooed Stic Ln Mount Pleasant SC 29466,32.8829777,-79.8273544,800000.0,5.0,4.0,3545.0,2006,8/26/2020,800000.0,8/22/2020,775000.0,8/19/2020,749000.0,6/3/2009,576200.0,8/16/2004,76400.0,6/20/2001,84900.0,nan,nan,https://www.zillow.com/homedetails/2600-Crooed-Stic-Ln-Mount-Pleasant-SC-29466/88887659_zpid/,2015,686.0,Jan 2016,741.0,Jan 2017,800.0,Dec 2017,805.0,Jan 2019,786,Feb 2020,755.0
160,https://www.zillow.com/homedetails/3750-Sisseton-Ln-Mount-Pleasant-SC-29466/110207618_zpid/,3750 Sisseton Ln Mount Pleasant SC 29466,32.8934485,-79.7561317,800000.0,5.0,5.0,3401.0,2015,8/26/2020,800000.0,5/21/2020,800000.0,3/12/2020,800000.0,10/4/2019,795000.0,8/23/2019,795000.0,2/6/2017,720000.0,12/1/2016,724900.0,https://www.zillow.com/homedetails/3750-Sisseton-Ln-Mount-Pleasant-SC-29466/110207618_zpid/,2015,713.0,Jan 2016,725.0,Dec 2017,762.0,Jan 2019,783.0,Feb 2020,811,nan,nan
161,https://www.zillow.com/homedetails/827-Pitt-St-Mount-Pleasant-SC-29464/10925187_zpid/,827 Pitt St Mount Pleasant SC 29464,32.779253000000004,-79.8678555,799000.0,2.0,1.0,1835.0,1920,7/18/2020,799000.0,3/26/2020,750000.0,nan,nan,nan,nan,nan,nan,nan,nan,nan,nan,https://www.zillow.com/homedetails/827-Pitt-St-Mount-Pleasant-SC-29464/10925187_zpid/,2015,572.0,Jan 2016,610.0,Jan 2017,808.0,Dec 2017,861.0,Jan 2019,902,Sold for,856.0
162,https://www.zillow.com/homedetails/970-Lansing-Dr-Mount-Pleasant-SC-29464/10921866_zpid/,970 Lansing Dr Mount Pleasant SC 29464,32.8011019,-79.8864151,799000.0,4.0,2.0,2010.0,1958,8/10/2020,799000.0,8/8/2020,825000.0,9/26/2007,30000.0,8/31/2005,305000.0,nan,nan,nan,nan,nan,nan,https://www.zillow.com/homedetails/970-Lansing-Dr-Mount-Pleasant-SC-29464/10921866_zpid/,2015,424.0,Jan 2016,498.0,Jan 2017,517.0,Dec 2017,557.0,Jan 2019,649,Feb 2020,654.0
163,https://www.zillow.com/homedetails/1895-N-James-Gregarie-Rd-Mount-Pleasant-SC-29466/68383111_zpid/,1895 N James Gregarie Rd Mount Pleasant SC 29466,32.9063337,-79.78909,799000.0,5.0,4.0,4500.0,2003,7/10/2020,799000.0,5/28/2020,795000.0,4/28/2020,795000.0,4/16/2020,795000.0,4/14/2020,795000.0,3/10/2020,785000.0,2/22/2020,785000.0,https://www.zillow.com/homedetails/1895-N-James-Gregarie-Rd-Mount-Pleasant-SC-29466/68383111_zpid/,2015,782.0,Jan 2016,734.0,Jan 2017,797.0,Dec 2017,771.0,Jan 2019,768,Sold for,772.0
164,https://www.zillow.com/homedetails/2601-iln-Cree-Cir-Mount-Pleasant-SC-29466/103861583_zpid/,2601 iln Cree Cir Mount Pleasant SC 29466,32.885929,-79.8314688,799000.0,4.0,4.0,3350.0,2011,8/14/2020,799000.0,7/27/2020,820000.0,7/13/2020,820000.0,6/16/2020,820000.0,4/25/2020,830000.0,12/19/2019,850000.0,7/20/2015,687500.0,https://www.zillow.com/homedetails/2601-iln-Cree-Cir-Mount-Pleasant-SC-29466/103861583_zpid/,2015,722.0,Jan 2016,707.0,Jan 2017,728.0,Dec 2017,782.0,Jan 2019,757,Feb 2020,830.0
165,https://www.zillow.com/homedetails/865-Tupelo-Bay-Dr-Mount-Pleasant-SC-29464/80214670_zpid/,865 Tupelo Bay Dr Mount Pleasant SC 29464,32.8498293,-79.866893,795000.0,4.0,4.0,2800.0,2005,8/11/2020,795000.0,5/17/2020,799500.0,2/17/2020,799500.0,1/10/2020,795500.0,9/9/2005,675000.0,6/23/2004,83500.0,nan,nan,https://www.zillow.com/homedetails/865-Tupelo-Bay-Dr-Mount-Pleasant-SC-29464/80214670_zpid/,2015,699.0,Jan 2016,716.0,Jan 2017,781.0,Dec 2017,757.0,Jan 2019,782,Feb 2020,762.0
166,https://www.zillow.com/homedetails/521-Center-St-Mount-Pleasant-SC-29464/10926239_zpid/,521 Center St Mount Pleasant SC 29464,32.7802571,-79.8643839,794900.0,3.0,2.0,1662.0,1973,8/27/2020,775000.0,7/27/2020,794900.0,7/17/2020,794900.0,7/9/2020,795000.0,7/8/2020,795000.0,8/15/2016,575000.0,7/23/2016,599000.0,https://www.zillow.com/homedetails/521-Center-St-Mount-Pleasant-SC-29464/10926239_zpid/,2015,436.0,Jan 2016,516.0,Jan 2017,583.0,Dec 2017,623.0,Jan 2019,644,Feb 2020,761.0
167,https://www.zillow.com/homedetails/874-Tupelo-Bay-Dr-Mount-Pleasant-SC-29464/80217184_zpid/,874 Tupelo Bay Dr Mount Pleasant SC 29464,32.849472600000006,-79.86733050000001,780000.0,3.0,4.0,2903.0,2005,7/30/2020,780000.0,6/7/2017,720000.0,4/25/2017,715000.0,4/18/2017,715000.0,3/24/2017,722500.0,3/17/2017,749000.0,2/23/2017,760000.0,https://www.zillow.com/homedetails/874-Tupelo-Bay-Dr-Mount-Pleasant-SC-29464/80217184_zpid/,2015,642.0,Jan 2016,657.0,Jan 2017,737.0,Dec 2017,746.0,Jan 2019,767,Feb 2020,794.0
168,https://www.zillow.com/homedetails/1541-Menhaden-Ln-HOMESITE-97-Mount-Pleasant-SC-29466/2078398113_zpid/,1541 Menhaden Ln HOMESITE 97 Mount Pleasant SC 29466,32.866347,-79.75343000000001,775045.0,5.0,4.0,2400.0,No Data,8/21/2020,775045.0,8/4/2020,770045.0,nan,nan,nan,nan,nan,nan,nan,nan,nan,nan,https://www.zillow.com/homedetails/1541-Menhaden-Ln-HOMESITE-97-Mount-Pleasant-SC-29466/2078398113_zpid/,2015,nan,Oct 2015,nan,Oct 2016,nan,Sep 2017,nan,Sep 2018,nan,Sep 2019,nan
169,https://www.zillow.com/homedetails/1541-Menhaden-Ln-Mount-Pleasant-SC-29466/2078521385_zpid/,1541 Menhaden Ln Mount Pleasant SC 29466,32.866347,-79.75343000000001,775045.0,5.0,4.0,2331.0,2020,8/16/2020,775045.0,7/26/2020,769870.0,nan,nan,nan,nan,nan,nan,nan,nan,nan,nan,https://www.zillow.com/homedetails/1541-Menhaden-Ln-Mount-Pleasant-SC-29466/2078521385_zpid/,2015,nan,Oct 2015,nan,Oct 2016,nan,Sep 2017,nan,Sep 2018,nan,Sep 2019,nan
170,https://www.zillow.com/homedetails/1560-Red-Tide-Rd-Mount-Pleasant-SC-29466/247532675_zpid/,1560 Red Tide Rd Mount Pleasant SC 29466,32.8237171,-79.80502800000001,775000.0,5.0,4.0,3389.0,2018,9/4/2020,775000.0,6/25/2018,695000.0,nan,nan,nan,nan,nan,nan,nan,nan,nan,nan,https://www.zillow.com/homedetails/1560-Red-Tide-Rd-Mount-Pleasant-SC-29466/247532675_zpid/,2015,514.0,Oct 2015,653.0,Oct 2016,495.0,Sep 2017,570.0,Sep 2018,704,Sep 2019,718.0
171,https://www.zillow.com/homedetails/1530-Gemstone-Dr-Mount-Pleasant-SC-29464/2078733096_zpid/,1530 Gemstone Dr Mount Pleasant SC 29464,32.8234848,-79.8520818,775000.0,4.0,3.0,2398.0,2020,7/11/2020,775000.0,nan,nan,nan,nan,nan,nan,nan,nan,nan,nan,nan,nan,https://www.zillow.com/homedetails/1530-Gemstone-Dr-Mount-Pleasant-SC-29464/2078733096_zpid/,2015,nan,Oct 2015,nan,Oct 2016,nan,Sep 2017,nan,Sep 2018,nan,Sep 2019,nan
172,https://www.zillow.com/homedetails/521-W-Rice-Planters-Ln-Mount-Pleasant-SC-29464/92384317_zpid/,521 W Rice Planters Ln Mount Pleasant SC 29464,32.8449638,-79.82917090000001,774999.0,5.0,5.0,3316.0,2008,9/1/2020,774999.0,8/13/2020,789900.0,7/28/2020,799900.0,7/7/2020,819000.0,6/19/2020,839900.0,1/21/2012,2950.0,1/3/2012,2950.0,https://www.zillow.com/homedetails/521-W-Rice-Planters-Ln-Mount-Pleasant-SC-29464/92384317_zpid/,2015,589.0,Jan 2016,670.0,Jan 2017,719.0,Dec 2017,727.0,Jan 2019,760,Feb 2020,728.0
173,https://www.zillow.com/homedetails/1096-Poplar-Tree-Dr-Mount-Pleasant-SC-29464/2080898257_zpid/,1096 Poplar Tree Dr Mount Pleasant SC 29464,32.8234848,-79.8520818,759900.0,4.0,4.0,2284.0,2020,6/20/2020,759900.0,2/26/2020,15000.0,nan,nan,nan,nan,nan,nan,nan,nan,nan,nan,https://www.zillow.com/homedetails/1096-Poplar-Tree-Dr-Mount-Pleasant-SC-29464/2080898257_zpid/,2015,nan,Oct 2015,nan,Oct 2016,nan,Sep 2017,nan,Sep 2018,nan,Sep 2019,nan
174,https://www.zillow.com/homedetails/1376-Founders-Way-Mount-Pleasant-SC-29464/247531029_zpid/,1376 Founders Way Mount Pleasant SC 29464,32.813837199999995,-79.83740859999999,759000.0,5.0,3.0,3296.0,2017,9/1/2020,759000.0,6/20/2018,725000.0,5/11/2018,734990.0,5/9/2018,734990.0,nan,nan,nan,nan,nan,nan,https://www.zillow.com/homedetails/1376-Founders-Way-Mount-Pleasant-SC-29464/247531029_zpid/,2015,511.0,Oct 2015,681.0,Oct 2016,379.0,Sep 2017,476.0,Sep 2018,735,Sep 2019,749.0
175,https://www.zillow.com/homedetails/720-Hibbens-Grant-Blvd-Mount-Pleasant-SC-29464/61454319_zpid/,720 Hibbens Grant Blvd Mount Pleasant SC 29464,32.8502478,-79.86533979999999,759000.0,4.0,3.0,2570.0,2001,9/3/2020,759000.0,8/30/2020,759000.0,9/2/2008,533000.0,8/31/2008,575000.0,11/2/2004,390000.0,4/26/2002,340000.0,2/1/2001,67000.0,https://www.zillow.com/homedetails/720-Hibbens-Grant-Blvd-Mount-Pleasant-SC-29464/61454319_zpid/,2015,538.0,Jan 2016,581.0,Jan 2017,588.0,Dec 2017,622.0,Jan 2019,619,Feb 2020,617.0
176,https://www.zillow.com/homedetails/1301-Founders-Way-Mount-Pleasant-SC-29464/2083335269_zpid/,1301 Founders Way Mount Pleasant SC 29464,32.811783,-79.83621590000001,751161.0,4.0,4.0,3359.0,2020,9/5/2020,751161.0,10/3/2019,741161.0,9/15/2019,756161.0,8/11/2019,748161.0,7/31/2019,727814.0,nan,nan,nan,nan,https://www.zillow.com/homedetails/1301-Founders-Way-Mount-Pleasant-SC-29464/2083335269_zpid/,2015,474.0,nan,nan,nan,nan,nan,nan,nan,nan,nan,nan
177,https://www.zillow.com/homedetails/1330-Roddington-St-Mount-Pleasant-SC-29464/10933365_zpid/,1330 Roddington St Mount Pleasant SC 29464,32.8083005,-79.8403535,750000.0,4.0,3.0,3143.0,1964,8/29/2020,750000.0,nan,nan,nan,nan,nan,nan,nan,nan,nan,nan,nan,nan,https://www.zillow.com/homedetails/1330-Roddington-St-Mount-Pleasant-SC-29464/10933365_zpid/,2015,521.0,Jan 2016,575.0,Jan 2017,551.0,Dec 2017,613.0,Jan 2019,574,Feb 2020,653.0
178,https://www.zillow.com/homedetails/1453-Appling-Dr-Mount-Pleasant-SC-29464/110212309_zpid/,1453 Appling Dr Mount Pleasant SC 29464,32.8084739,-79.841817,750000.0,5.0,4.0,3040.0,2020,9/4/2020,750000.0,7/31/2020,781500.0,5/8/2020,775000.0,2/20/2020,900000.0,8/22/2006,275000.0,10/18/2002,71000.0,nan,nan,https://www.zillow.com/homedetails/1453-Appling-Dr-Mount-Pleasant-SC-29464/110212309_zpid/,2015,nan,Oct 2015,nan,Oct 2016,nan,Sep 2017,nan,Sep 2018,nan,Sep 2019,nan
179,https://www.zillow.com/homedetails/2103-Sewee-Indian-Ct-Mount-Pleasant-SC-29466/10939272_zpid/,2103 Sewee Indian Ct Mount Pleasant SC 29466,32.902097999999995,-79.8066075,750000.0,5.0,4.0,3856.0,1992,8/1/2020,750000.0,5/31/1996,325000.0,nan,nan,nan,nan,nan,nan,nan,nan,nan,nan,https://www.zillow.com/homedetails/2103-Sewee-Indian-Ct-Mount-Pleasant-SC-29466/10939272_zpid/,2015,612.0,Jan 2016,654.0,Jan 2017,674.0,Dec 2017,694.0,Jan 2019,676,Feb 2020,654.0
180,https://www.zillow.com/homedetails/2961-Pignatelli-Cres-Mount-Pleasant-SC-29466/10938904_zpid/,2961 Pignatelli Cres Mount Pleasant SC 29466,32.9049441,-79.8093188,749999.0,5.0,5.0,5247.0,1997,9/3/2020,749999.0,6/30/2020,750000.0,6/22/2020,750000.0,6/14/2020,750000.0,5/12/2020,775000.0,4/10/2020,779000.0,1/19/2020,779000.0,https://www.zillow.com/homedetails/2961-Pignatelli-Cres-Mount-Pleasant-SC-29466/10938904_zpid/,2015,865.0,Jan 2016,875.0,Jan 2017,788.0,Dec 2017,840.0,Jan 2019,868,Feb 2020,754.0
181,https://www.zillow.com/homedetails/1589-Fort-Palmetto-Cir-Mount-Pleasant-SC-29466/247523826_zpid/,1589 Fort Palmetto Cir Mount Pleasant SC 29466,32.8259059,-79.80165629999999,749900.0,4.0,3.0,2907.0,2018,7/9/2020,749900.0,6/4/2020,764999.0,3/5/2018,618882.0,nan,nan,nan,nan,nan,nan,nan,nan,https://www.zillow.com/homedetails/1589-Fort-Palmetto-Cir-Mount-Pleasant-SC-29466/247523826_zpid/,2015,nan,Oct 2015,nan,Oct 2016,nan,Sep 2017,508.0,Sep 2018,635,Sep 2019,648.0
182,https://www.zillow.com/homedetails/2822-Oa-Manor-Dr-Mount-Pleasant-SC-29466/80213560_zpid/,2822 Oa Manor Dr Mount Pleasant SC 29466,32.915083100000004,-79.8173704,749900.0,4.0,4.0,3250.0,2005,8/21/2020,749900.0,7/18/2020,749900.0,6/9/2020,749900.0,2/13/2018,3700.0,1/21/2018,3700.0,10/3/2016,3650.0,8/21/2012,3400.0,https://www.zillow.com/homedetails/2822-Oa-Manor-Dr-Mount-Pleasant-SC-29466/80213560_zpid/,2015,595.0,Jan 2016,593.0,Jan 2017,609.0,Dec 2017,641.0,Jan 2019,646,Feb 2020,629.0
183,https://www.zillow.com/homedetails/1201-Max-Ln-Mount-Pleasant-SC-29466/2080160441_zpid/,1201 Max Ln Mount Pleasant SC 29466,32.8478378,-79.8023629,749900.0,4.0,4.0,3300.0,2020,7/11/2020,749900.0,4/7/2020,784900.0,nan,nan,nan,nan,nan,nan,nan,nan,nan,nan,https://www.zillow.com/homedetails/1201-Max-Ln-Mount-Pleasant-SC-29466/2080160441_zpid/,2015,nan,Oct 2015,nan,Oct 2016,nan,Sep 2017,nan,Sep 2018,nan,Sep 2019,nan
184,https://www.zillow.com/homedetails/2764-Oa-Manor-Dr-Mount-Pleasant-SC-29466/80211500_zpid/,2764 Oa Manor Dr Mount Pleasant SC 29466,32.9154322,-79.8193261,742900.0,5.0,4.0,3808.0,2005,8/1/2020,742900.0,11/24/2010,495000.0,11/12/2010,465000.0,5/12/2010,725000.0,12/29/2005,674500.0,7/30/2004,144900.0,8/19/2002,8972126.0,https://www.zillow.com/homedetails/2764-Oa-Manor-Dr-Mount-Pleasant-SC-29466/80211500_zpid/,2015,610.0,Jan 2016,656.0,Jan 2017,625.0,Dec 2017,643.0,Jan 2019,642,Feb 2020,632.0
185,https://www.zillow.com/homedetails/3062-Yachtsman-Dr-Mount-Pleasant-SC-29466/110233301_zpid/,3062 Yachtsman Dr Mount Pleasant SC 29466,32.9219273,-79.803649,739900.0,5.0,4.0,3900.0,2011,9/1/2020,739900.0,8/21/2020,749900.0,12/8/2017,3500.0,11/4/2017,3500.0,10/3/2017,3600.0,6/20/2017,3600.0,5/23/2017,3600.0,https://www.zillow.com/homedetails/3062-Yachtsman-Dr-Mount-Pleasant-SC-29466/110233301_zpid/,2015,622.0,Jan 2016,699.0,Jan 2017,720.0,Dec 2017,680.0,Jan 2019,676,Feb 2020,679.0
186,https://www.zillow.com/homedetails/1375-Rivella-Dr-Mount-Pleasant-SC-29464/247528617_zpid/,1375 Rivella Dr Mount Pleasant SC 29464,32.814213,-79.837051,739000.0,3.0,3.0,3300.0,2017,8/28/2020,739000.0,2/19/2019,690000.0,1/17/2019,697900.0,1/15/2019,703285.0,1/9/2019,697900.0,11/29/2018,699900.0,11/25/2018,710000.0,https://www.zillow.com/homedetails/1375-Rivella-Dr-Mount-Pleasant-SC-29464/247528617_zpid/,2015,478.0,Oct 2015,636.0,Oct 2016,370.0,Sep 2017,459.0,Sep 2018,668,Sep 2019,697.0
187,https://www.zillow.com/homedetails/4069-Blacmoor-St-Mount-Pleasant-SC-29466/122140397_zpid/,4069 Blacmoor St Mount Pleasant SC 29466,32.85657,-79.766976,739000.0,5.0,4.0,3825.0,2012,8/31/2020,739000.0,5/15/2020,749000.0,3/26/2020,765000.0,11/8/2019,4000.0,10/3/2019,4000.0,9/24/2019,4500.0,7/22/2018,4000.0,https://www.zillow.com/homedetails/4069-Blacmoor-St-Mount-Pleasant-SC-29466/122140397_zpid/,2015,570.0,Sold for,643.0,Jan 2017,663.0,Dec 2017,712.0,Jan 2019,743,Listed for,725.0
188,https://www.zillow.com/homedetails/708-Hibbens-Grant-Blvd-Mount-Pleasant-SC-29464/61454898_zpid/,708 Hibbens Grant Blvd Mount Pleasant SC 29464,32.8504831,-79.8647491,735900.0,4.0,4.0,2759.0,2001,9/3/2020,735900.0,5/20/2020,745000.0,5/19/2020,745000.0,5/15/2020,745000.0,4/17/2020,750000.0,8/14/2003,282200.0,4/26/2002,280000.0,https://www.zillow.com/homedetails/708-Hibbens-Grant-Blvd-Mount-Pleasant-SC-29464/61454898_zpid/,2015,596.0,Jan 2016,602.0,Jan 2017,627.0,Dec 2017,643.0,Jan 2019,650,Feb 2020,673.0
189,https://www.zillow.com/homedetails/15-Founders-Way-Mount-Pleasant-SC-29464/2084442553_zpid/,15 Founders Way Mount Pleasant SC 29464,32.812790500000006,-79.8369271,730990.0,4.0,4.0,3359.0,2020,9/5/2020,730990.0,8/2/2020,710490.0,7/7/2020,703990.0,6/3/2020,701990.0,5/15/2019,699990.0,nan,nan,nan,nan,https://www.zillow.com/homedetails/15-Founders-Way-Mount-Pleasant-SC-29464/2084442553_zpid/,2015,474.0,nan,nan,nan,nan,nan,nan,nan,nan,nan,nan
190,https://www.zillow.com/homedetails/545-Cooper-Village-Ln-Mount-Pleasant-SC-29464/2081267929_zpid/,545 Cooper Village Ln Mount Pleasant SC 29464,32.8066,-79.88833000000001,729900.0,3.0,5.0,2789.0,2020,8/27/2020,729900.0,7/11/2020,734900.0,5/6/2020,725899.0,4/11/2020,725590.0,2/5/2020,760540.0,1/29/2020,768780.0,nan,nan,https://www.zillow.com/homedetails/545-Cooper-Village-Ln-Mount-Pleasant-SC-29464/2081267929_zpid/,2015,708.0,nan,nan,nan,nan,nan,nan,nan,nan,nan,nan
191,https://www.zillow.com/homedetails/1317-Mcleans-Ct-Mount-Pleasant-SC-29466/55641153_zpid/,1317 Mcleans Ct Mount Pleasant SC 29466,32.8661709,-79.80706409999999,729900.0,5.0,4.0,3586.0,2000,8/12/2020,729900.0,5/15/2020,739900.0,4/1/2020,3595.0,3/21/2020,3595.0,3/10/2020,3795.0,2/15/2020,3850.0,12/27/2019,3950.0,https://www.zillow.com/homedetails/1317-Mcleans-Ct-Mount-Pleasant-SC-29466/55641153_zpid/,2015,666.0,Jan 2016,694.0,Jan 2017,703.0,Dec 2017,750.0,Jan 2019,743,Feb 2020,743.0
192,https://www.zillow.com/homedetails/85-Jane-Jacobs-St-Mount-Pleasant-SC-29464/110210577_zpid/,85 Jane Jacobs St Mount Pleasant SC 29464,32.8173805,-79.8829047,725000.0,2.0,3.0,1468.0,2013,9/4/2020,725000.0,4/28/2017,579000.0,4/28/2017,599000.0,3/17/2017,599000.0,3/3/2017,599000.0,12/22/2016,635000.0,12/28/2011,125000.0,https://www.zillow.com/homedetails/85-Jane-Jacobs-St-Mount-Pleasant-SC-29464/110210577_zpid/,2015,612.0,nan,nan,nan,nan,nan,nan,nan,nan,nan,nan
193,https://www.zillow.com/homedetails/1453-Cotton-Bounty-Ct-Mount-Pleasant-SC-29466/68392546_zpid/,1453 Cotton Bounty Ct Mount Pleasant SC 29466,32.8519382,-79.77076269999999,725000.0,5.0,4.0,3219.0,2003,8/28/2020,725000.0,7/31/2020,725000.0,7/28/2020,725000.0,5/9/2020,676000.0,4/11/2020,699000.0,3/22/2020,699000.0,9/11/2014,567500.0,https://www.zillow.com/homedetails/1453-Cotton-Bounty-Ct-Mount-Pleasant-SC-29466/68392546_zpid/,2015,568.0,Jan 2016,607.0,Jan 2017,693.0,Dec 2017,675.0,Jan 2019,685,Feb 2020,683.0
194,https://www.zillow.com/homedetails/1471-Brightwood-Dr-Mount-Pleasant-SC-29466/247522717_zpid/,1471 Brightwood Dr Mount Pleasant SC 29466,32.8816833,-79.8027422,725000.0,6.0,5.0,3813.0,2017,8/24/2020,725000.0,3/6/2017,575000.0,nan,nan,nan,nan,nan,nan,nan,nan,nan,nan,https://www.zillow.com/homedetails/1471-Brightwood-Dr-Mount-Pleasant-SC-29466/247522717_zpid/,2015,nan,Oct 2015,nan,Oct 2016,nan,Sep 2017,nan,Sep 2018,nan,Sep 2019,nan
195,https://www.zillow.com/homedetails/14-Founders-Way-Mount-Pleasant-SC-29464/2084442557_zpid/,14 Founders Way Mount Pleasant SC 29464,32.812790500000006,-79.8369271,722990.0,4.0,4.0,3124.0,2020,9/5/2020,722990.0,8/2/2020,700490.0,7/7/2020,693990.0,6/3/2020,691990.0,5/15/2019,689990.0,nan,nan,nan,nan,https://www.zillow.com/homedetails/14-Founders-Way-Mount-Pleasant-SC-29464/2084442557_zpid/,2015,474.0,nan,nan,nan,nan,nan,nan,nan,nan,nan,nan
196,https://www.zillow.com/homedetails/403-Rice-Hope-Dr-Mount-Pleasant-SC-29464/10929992_zpid/,403 Rice Hope Dr Mount Pleasant SC 29464,32.853718699999995,-79.82960859999999,720000.0,4.0,3.0,2779.0,1989,9/4/2020,720000.0,11/20/2015,510000.0,11/25/2013,440000.0,nan,nan,nan,nan,nan,nan,nan,nan,https://www.zillow.com/homedetails/403-Rice-Hope-Dr-Mount-Pleasant-SC-29464/10929992_zpid/,2015,589.0,nan,nan,nan,nan,nan,nan,nan,nan,nan,nan
197,https://www.zillow.com/homedetails/547-Cooper-Village-Ln-Mount-Pleasant-SC-29464/2081267928_zpid/,547 Cooper Village Ln Mount Pleasant SC 29464,32.808577,-79.8620443,719900.0,3.0,5.0,2789.0,2020,7/11/2020,719900.0,5/6/2020,713899.0,2/5/2020,748060.0,1/29/2020,748130.0,nan,nan,nan,nan,nan,nan,https://www.zillow.com/homedetails/547-Cooper-Village-Ln-Mount-Pleasant-SC-29464/2081267928_zpid/,2015,nan,000ar 2017,nan,000ar 2018,nan,000ar 2019,nan,Apr 2020,741,nan,nan
198,https://www.zillow.com/homedetails/1561-epley-Dr-N-Mount-Pleasant-SC-29464/2079301024_zpid/,1561 epley Dr N Mount Pleasant SC 29464,32.8234848,-79.8520818,715457.0,3.0,3.0,2552.0,No Data,9/5/2020,715457.0,6/4/2020,687095.0,6/4/2020,682595.0,nan,nan,nan,nan,nan,nan,nan,nan,https://www.zillow.com/homedetails/1561-epley-Dr-N-Mount-Pleasant-SC-29464/2079301024_zpid/,2015,nan,Oct 2015,nan,Oct 2016,nan,Sep 2017,nan,Sep 2018,nan,Sep 2019,nan
199,https://www.zillow.com/homedetails/1144-Pleasant-Pines-Rd-Mount-Pleasant-SC-29464/2081345032_zpid/,1144 Pleasant Pines Rd Mount Pleasant SC 29464,32.8050103,-79.8574189,715000.0,4.0,3.0,2900.0,2020,9/4/2020,715000.0,7/31/2020,721500.0,6/30/2020,715000.0,3/16/2020,850000.0,1/24/2020,680000.0,nan,nan,nan,nan,https://www.zillow.com/homedetails/1144-Pleasant-Pines-Rd-Mount-Pleasant-SC-29464/2081345032_zpid/,2015,nan,Oct 2015,nan,Oct 2016,nan,Sep 2017,nan,Sep 2018,nan,Sep 2019,nan
200,https://www.zillow.com/homedetails/3930-Colonel-Vanderhorst-Cir-Mount-Pleasant-SC-29466/10938870_zpid/,3930 Colonel Vanderhorst Cir Mount Pleasant SC 29466,32.923421399999995,-79.7868347,715000.0,4.0,4.0,3353.0,1995,9/2/2020,715000.0,12/30/1996,282500.0,nan,nan,nan,nan,nan,nan,nan,nan,nan,nan,https://www.zillow.com/homedetails/3930-Colonel-Vanderhorst-Cir-Mount-Pleasant-SC-29466/10938870_zpid/,2015,589.0,Jan 2016,558.0,Jan 2017,578.0,Dec 2017,574.0,Jan 2019,592,Listed for,625.0
201,https://www.zillow.com/homedetails/3675-Coastal-Crab-Rd-Mount-Pleasant-SC-29466/88973154_zpid/,3675 Coastal Crab Rd Mount Pleasant SC 29466,32.9045743,-79.7737839,715000.0,4.0,5.0,3094.0,2007,8/29/2020,715000.0,3/1/2017,695000.0,1/20/2017,699000.0,1/4/2017,699000.0,12/13/2016,725000.0,11/1/2016,726000.0,8/10/2016,729000.0,https://www.zillow.com/homedetails/3675-Coastal-Crab-Rd-Mount-Pleasant-SC-29466/88973154_zpid/,2015,707.0,Jan 2016,664.0,Sold for,708.0,Dec 2017,733.0,Jan 2019,753,Feb 2020,780.0
